관리기관명,소재지지번주소,설치년월,보관일수,카메라대수,경도,소재지도로명주소,위도,설치목적구분,촬영방면정보,데이터기준일자,카메라화소수,관리기관전화번호
성남시청,경기도 성남시 분당구 수내동 44번지,,0,1,127.114393,,37.381873,재난재해,백현교,2018-03-07,,02-2100-5397
성남시청,경기도 성남시 분당구 구미동 78번지,,0,1,127.120161,,37.351102,재난재해,미금교,2018-03-07,,02-2100-5397
경기도지사,경기도 성남시 수정구 복정동 672,2003-06,30,4,127.127678,경기도 성남시 수정구 성남대로 1480번길 12,37.461671,생활방범,,2017-04-19,200,031-759-5082
경기도혈액원,경기도 성남시 분당구 야탑동 353-5 분당종합상가 3층,2015-12,30,2,127.127623,경기도 성남시 분당구 야탑로 69번길 24-8 분당종합상가 3층,37.411607,생활방범,,2017-04-19,200,031-707-3791
경기도혈액원,경기도 성남시 분당구 서현동 269-5 서원빌딩 4층,2015-11,30,2,127.121541,경기도 성남시 분당구 분당로 53번길 11 서원빌딩 4층,37.384031,생활방범,,2017-04-19,130,031-707-3795
국토교통부 철도특별사법경찰대,,2016-11,30,25,127.111490,경기도 성남시 분당구 삼평동 산25-1 판교역,37.395036,생활방범,역사 출입구 및 역구내,2017-11-15,130,042-615-5895
국토교통부 철도특별사법경찰대,,2016-11,30,8,127.128358,경기도 성남시 분당구 이매동 126-10 이매역,37.396135,생활방범,역사 출입구 및 역구내,2017-11-15,130,042-615-5895
과천시시설관리공단(문원체육공원),경기도 과천시 문원동 30번지,2002-09,30,17,127.111111,경기도 과천시 문원로 56,37.421111,시설물관리,공원전체,2017-04-13,43,02-500-1163
경기도 성남시청,경기도 성남시 분당구 성남시 분당구 분당동 108-1번지 맞은편,2011-04,,3,127.1449705,경기도 성남시 분당구 서현로429번길 30,37.3767595,생활방범,,2018-04-01,41,031-729-2482
경기도 성남시청,경기도 성남시 분당구 성남시 분당구 분당동 45번지(동아빌라와 옴니빌라 사이),2013-03,,2,127.1337441,경기도 성남시 분당구 예원로 7,37.371351,생활방범,,2018-04-01,200,031-729-2482
경기도 성남시청,경기도 성남시 분당구 백현동 606번지 물방울어린이공원 내부,2016-09,,4,127.115881,,37.386671,생활방범,,2018-04-01,200,031-729-2482
경기도 성남시청,경기도 성남시 분당구 야탑3동 206번지 연꽃어린이공원 내부,2016-11,,1,127.137411,,37.415241,어린이보호,,2018-04-01,200,031-729-2482
경기도 성남시청,경기도 성남시 분당구 야탑3동 197-2(버스정류장),2017-09,,5,127.142901,,37.408131,생활방범,,2018-04-01,200,031-729-2482
경기도 성남시청,경기도 성남시 분당구 야탑동 159-8,2017-12,,4,127.155231,,37.405361,생활방범,,2018-04-01,200,031-729-2482
경기도 성남시청,경기도 성남시 분당구 금곡동 126번지 분당정보고등학교 후문,2010-09,,2,127.1111561,"경기도 성남시 분당구 미금로 246, 후문(금곡동, 청솔마을주공6단지)",37.3541183,생활방범,,2018-04-01,200,031-729-2482
경기도 성남시청,경기도 성남시 분당구 금곡동 135번지 청솔초등학교 후문 보행자통로,2010-09,,5,127.113201,"경기도 성남시 분당구 금곡로 243, 청솔초등학교  (금곡동)",37.353881,생활방범,,2018-04-01,200,031-729-2482
경기도 성남시청,경기도 성남시 분당구 금곡동 104번지 낙생농협 앞,2010-09,,2,127.1000821,,37.3627979,생활방범,,2018-04-01,200,031-729-2482
경기도 성남시청,경기도 성남시 분당구 금곡동 131번지 청솔초등학교 정문,2012-05,,3,127.1141706,"경기도 성남시 분당구 금곡로 243, 청솔초등학교  정문(금곡동)",37.3540659,어린이보호,,2018-04-01,130,031-729-2482
경기도 성남시청,경기도 성남시 분당구 금곡동 175번지 야생화어린이공원,2013-10,,4,127.1066271,,37.3515843,어린이보호,,2018-04-01,200,031-729-2482
경기도 성남시청,경기도 성남시 분당구 궁내동 285-1번지 궁백교회 뒤,2013-10,,3,127.1010456,"경기도 성남시 분당구 궁내로22번길 32, 궁백교회  뒤(궁내동)",37.3713794,생활방범,,2018-04-01,200,031-729-2482
경기도 성남시청,경기도 성남시 분당구 금곡동 66-5,2014-12,,1,127.0967848,,37.3633033,생활방범,,2018-04-01,200,031-729-2482
경기도 성남시청,경기도 성남시 분당구 금곡동 141번지(즐거운유치원),2014-11,,1,127.1130175,"경기도 성남시 분당구 미금로 215, (금곡동, 청솔마을대원8단지)",37.351218,어린이보호,,2018-04-01,200,031-729-2482
경기도 성남시청,경기도 성남시 분당구 금곡동 46-6 금곡동어린이놀이터,2014-11,,4,127.0973343,"경기도 성남시 분당구 쇳골로 35-1, 금곡동어린이놀이터  (금곡동)",37.3627217,어린이보호,,2018-04-01,200,031-729-2482
경기도 성남시청,경기도 성남시 분당구 궁내동 184-12 경부고속도로 횡단 지하통로(정자로 방면),2011-12,,2,127.103539,경기도 성남시 분당구 경부고속도로,37.363711,생활방범,,2018-04-01,200,031-729-2482
경기도 성남시청,경기도 성남시 분당구 금곡동 127-1 금곡지하보도(주공 607동앞),2015-10,,2,127.109162,,37.354204,생활방범,,2018-04-01,200,031-729-2482
경기도 성남시청,경기도 성남시 분당구 궁내동 247번지 앞,2010-09,,2,127.1007322,,37.3701467,생활방범,,2018-04-01,200,031-729-2482
경기도 성남시청,경기도 성남시 분당구 궁내동 353번지 궁내동어린이놀이터,2011-12,,3,127.097633,"경기도 성남시 분당구 궁내로40번길 11, 궁내동어린이놀이터  (궁내동)",37.3705898,어린이보호,,2018-04-01,130,031-729-2482
경기도 성남시청,경기도 성남시 분당구 궁내동 245번지,2016-09,,4,127.101421,,37.370331,생활방범,,2018-04-01,200,031-729-2482
경기도 성남시청,경기도 성남시 분당구 금곡동 135번지 앞구미어린이공원 내부,2016-11,,1,127.113231,,37.353661,어린이보호,,2018-04-01,200,031-729-2482
경기도 성남시청,경기도 성남시 분당구 금곡동 365-10번지(궁내동 버스정류장),2017-12,,4,127.094011,,37.370381,생활방범,,2018-04-01,200,031-729-2482
경기도 성남시청,경기도 성남시 분당구 구미동 108번지 하얀마을5단지 하얀어린이공원 앞 보행자통로,2010-09,,2,127.118431,"경기도 성남시 분당구 미금일로 21, (구미동, 하얀마을주공5단지)",37.344691,생활방범,,2018-04-01,200,031-729-2482
경기도 성남시청,경기도 성남시 분당구 구미동 143-3번지 수평어린이공원(분당65호) 주변,2010-09,,2,127.1107418,"경기도 성남시 분당구 미금일로79번길 6, 수평어린이공원분당 65호 주변(구미동)",37.345338,생활방범,,2018-04-01,200,031-729-2482
경기도 성남시청,경기도 성남시 분당구 구미동 114번지 오리어린이공원(분당64호),2011-12,,3,127.1141408,,37.3445618,어린이보호,,2018-04-01,130,031-729-2482
경기도 성남시청,경기도 성남시 분당구 구미동 206번지 구미어린이공원(분당67호),2012-10,,5,127.1172977,,37.3374543,어린이보호,,2018-04-01,200,031-729-2482
경기도 성남시청,경기도 성남시 분당구 구미동 193-1번지 오리공원,2013-10,,4,127.1119359,,37.3412925,어린이보호,,2018-04-01,200,031-729-2482
경기도 성남시청,경기도 성남시 분당구 구미동 281번지 골안어린이공원,2013-10,,4,127.1246201,,37.3431024,어린이보호,,2018-04-01,200,031-729-2482
경기도 성남시청,경기도 성남시 분당구 구미동 230번지 무지개어린이공원,2013-10,,4,127.1227763,,37.3397938,어린이보호,,2018-04-01,200,031-729-2482
경기도 성남시청,경기도 성남시 분당구 구미동 239번지 넘말어린이공원,2013-10,,4,127.1247868,,37.3404815,어린이보호,,2018-04-01,200,031-729-2482
경기도 성남시청,경기도 성남시 분당구 구미동 252번지 큰골어린이공원,2013-10,,4,127.1260824,,37.3402035,어린이보호,,2018-04-01,200,031-729-2482
경기도 성남시청,경기도 성남시 분당구 구미동 241번지 불곡초등학교 주변,2013-10,,3,127.1191788,"경기도 성남시 분당구 무지개로 129, 불곡초등학교  주변(구미동)",37.3408553,어린이보호,,2018-04-01,200,031-729-2482
경기도 성남시청,경기도 성남시 분당구 구미동 295 대광사 정문 앞 코너부분,2013-10,,3,127.1272955,"경기도 성남시 분당구 구미로185번길 30, 대광사정문앞코너부분  (구미동)",37.346413,생활방범,,2018-04-01,200,031-729-2482
경기도 성남시청,경기도 성남시 분당구 구미동 187-9 노블빌리지 105동,2013-10,,3,127.1112736,"경기도 성남시 분당구 탄천상로 89, 노블빌리지 105동  (구미동)",37.3395099,생활방범,,2018-04-01,200,031-729-2482
경기도 성남시청,경기도 성남시 분당구 구미동 209번지 진고개공원,2014-03,,2,127.1153297,,37.3346918,어린이보호,,2018-04-01,200,031-729-2482
경기도 성남시청,경기도 성남시 분당구 구미동 196번지(오리역 2번출구 부근 광장),2014-12,,1,127.1094274,,37.3397455,생활방범,,2018-04-01,200,031-729-2482
경기도 성남시청,경기도 성남시 분당구 구미동 238번지(성모유치원),2014-11,,4,127.1243484,"경기도 성남시 분당구 구미로130번길 20, 성모유치원  (구미동)",37.3401373,어린이보호,,2018-04-01,200,031-729-2482
경기도 성남시청,경기도 성남시 분당구 구미동 108번지 하얀어린이공원 내부,2016-11,,1,127.117941,,37.345011,어린이보호,,2018-04-01,200,031-729-2482
경기도 성남시청,경기도 성남시 분당구 구미동 138번지 수평어린이공원 내부,2016-11,,1,127.111001,"경기도 성남시 분당구 금곡로23번길 15-5, 수평어린이공원내부  (구미동)",37.344651,어린이보호,,2018-04-01,200,031-729-2482
경기도 성남시청,경기도 성남시 분당구 성남시 분당구 야탑2동 529번지 무잡모퉁이어린이공원(분당13호) 하탑초등학교 주변,2010-04,,2,127.1270171,,37.4073396,어린이보호,,2018-04-01,41,031-729-2482
경기도 성남시청,경기도 성남시 분당구 구미1동 87번지 샘터어린이공원,2013-10,,4,127.118613,,37.3488017,어린이보호,,2018-04-01,200,031-729-2482
경기도 성남시청,경기도 성남시 분당구 구미1동 까치마을 건영빌라 508동 601동 사이 보행자도로,2013-10,,3,127.111763,"경기도 성남시 분당구 미금일로 136, 508동 601호 동 사이(구미동, 까치마을건영5단지)",37.349365,생활방범,,2018-04-01,200,031-729-2482
경기도 성남시청,경기도 성남시 분당구 동원동 110-4 동원1동어린이놀이터,2014-03,,1,127.098721,"경기도 성남시 분당구 동원북로 26, 동원 1동  어린이놀이터(동원동)",37.3461579,어린이보호,,2018-04-01,200,031-729-2482
경기도 성남시청,경기도 성남시 분당구 동원동 222번지,2014-06,,4,127.0798242,"경기도 성남시 분당구 동막로245번길 97, (동원동)",37.3590146,생활방범,,2018-04-01,200,031-729-2482
경기도 성남시청,경기도 성남시 분당구 구미1동 58-3번지,2014-12,,1,127.1011217,"경기도 성남시 분당구 미금일로80번길 5, (구미동)",37.3460774,생활방범,,2018-04-01,200,031-729-2482
경기도 성남시청,경기도 성남시 분당구 구미1동 68번지(미금초등학교),2014-11,,5,127.1153504,"경기도 성남시 분당구 미금로 151, 미금초등학교  (구미동)",37.3470948,어린이보호,,2018-04-01,200,031-729-2482
경기도 성남시청,경기도 성남시 분당구 구미1동 93번지,2015-11,,3,127.1246814,,37.3766914,생활방범,,2018-04-01,200,031-729-2482
경기도 성남시청,경기도 성남시 분당구 구미1동 32번지 뒷구미어린이공원(분당59호),2012-12,,4,127.1112807,,37.3489828,어린이보호,,2018-04-01,200,031-729-2482
경기도 성남시청,경기도 성남시 분당구 구미1동 71 구미지하보도(구미119 옆),2015-10,,2,127.1111542,"경기도 성남시 분당구 돌마로 138, 보도구미 지하층 119호 구미 옆(구미동)",37.3449596,생활방범,,2018-04-01,200,031-729-2482
경기도 성남시청,경기도 성남시 분당구 구미1동 67번지 미금초등학교 후문(벌말공원),2010-09,,2,127.1152983,경기도 성남시 분당구 미금로 151,37.3481256,어린이보호,,2018-04-01,200,031-729-2482
경기도 성남시청,경기도 성남시 분당구 구미1동 54-6번지 24시카센타 앞 사거리,2010-09,,2,127.1100702,"경기도 성남시 분당구 미금일로90번길 2, 시카센터 24호 (구미동)",37.3461172,생활방범,,2018-04-01,200,031-729-2482
경기도 성남시청,경기도 성남시 분당구 구미1동 96-5번지,2017-12,,4,127.110351,"경기도 성남시 분당구 동원북로 33, (동원동)",37.345891,생활방범,,2018-04-01,200,031-729-2482
경기도 성남시청,경기도 성남시 분당구 구미1동 73번지 까치마을어린이공원,2013-10,,3,127.118161,,37.3510827,어린이보호,,2018-04-01,200,031-729-2482
경기도 성남시청,경기도 성남시 분당구 판교동 615-7번지 F6-1블럭 주택지역 내 24시간 편의점 옆,2011-06,,1,127.0896065,,37.3912181,생활방범,,2018-04-01,41,031-729-2482
경기도 성남시청,경기도 성남시 분당구 판교동 614-11번지 F6-1블럭 주택지역 내 판교 도서관 맞은편,2011-06,,1,127.0904382,,37.3913697,생활방범,,2018-04-01,41,031-729-2482
경기도 성남시청,경기도 성남시 분당구 판교동 612번지 F7-1블럭 주택지역 내 판교 도서관 맞은편,2011-06,,1,127.0910088,,37.3912518,생활방범,,2018-04-01,200,031-729-2482
경기도 성남시청,경기도 성남시 분당구 판교동 618-11번지 F6-1블럭 주택지역 내 음식점(리강) 옆,2011-06,,1,127.0893203,,37.3905322,생활방범,,2018-04-01,41,031-729-2482
경기도 성남시청,경기도 성남시 분당구 서현1동 78-4번지 솔밭어린이공원,2013-10,,3,127.1305004,"경기도 성남시 분당구 새마을로1번길 3, 솔밭어린이공원  (서현동)",37.3844871,어린이보호,,2018-04-01,200,031-729-2482
경기도 성남시청,경기도 성남시 분당구 서현1동 92-1번지 분당초등학교 주변,2013-10,,3,127.1298147,"경기도 성남시 분당구 중앙공원로32번길 20, 분당초등학교  주변(서현동)",37.3786276,어린이보호,,2018-04-01,200,031-729-2482
경기도 성남시청,경기도 성남시 분당구 서현1동 87-1번지 서현초등학교 주변,2013-10,,3,127.1284802,"경기도 성남시 분당구 중앙공원로39번길 12, 서현초등학교  주변(서현동)",37.3824537,어린이보호,,2018-04-01,200,031-729-2482
경기도 성남시청,경기도 성남시 분당구 서현1동 85-4번지,2013-10,,3,127.1282472,"경기도 성남시 분당구 서현로237번길 7, (서현동)",37.3858623,생활방범,,2018-04-01,200,031-729-2482
경기도 성남시청,경기도 성남시 분당구 서현1동 80-4번지,2013-10,,3,127.1296425,"경기도 성남시 분당구 서현로255번길 7, (서현동)",37.3848259,생활방범,,2018-04-01,200,031-729-2482
경기도 성남시청,경기도 성남시 분당구 율동 323-15 율동어린이놀이터,2014-03,,1,127.1521413,,37.3822533,어린이보호,,2018-04-01,200,031-729-2482
경기도 성남시청,경기도 성남시 분당구 서현1동 188-18번지,2014-12,,1,127.1362579,"경기도 성남시 분당구 안골로 42, (서현동)",37.3855916,생활방범,,2018-04-01,200,031-729-2482
경기도 성남시청,경기도 성남시 분당구 율동 318 율동공원,2014-11,,4,127.1509352,"경기도 성남시 분당구 문정로 145, 율동공원  (율동)",37.3820866,어린이보호,,2018-04-01,200,031-729-2482
경기도 성남시청,경기도 성남시 분당구 서현1동 89-4번지(중앙유치원),2014-11,,1,127.1260124,"경기도 성남시 분당구 중앙공원로31번길 32, 중앙유치원  (서현동)",37.3824028,어린이보호,,2018-04-01,200,031-729-2482
경기도 성남시청,경기도 성남시 분당구 서현1동 240-39번지 맞은편,2016-09,,5,127.134051,,37.382561,생활방범,,2018-04-01,200,031-729-2482
경기도 성남시청,경기도 성남시 분당구 서현1동 245-1번지,2017-12,,4,127.126451,"경기도 성남시 분당구 서현로 216, (서현동)",37.386251,생활방범,,2018-04-01,200,031-729-2482
경기도 성남시청,경기도 성남시 분당구 서현2동 317-9번지 양영어린이공원(분당35호) 양영초등학교 주변,2010-04,,3,127.134598,"경기도 성남시 분당구 불정로406번길 17, 양영초등학교 35호 양영어린이공원 분당 주변(서현동)",37.376033,어린이보호,,2018-04-01,41,031-729-2482
경기도 성남시청,경기도 성남시 분당구 서현2동 338-1번지 부근,2010-04,,2,127.1412941,"경기도 성남시 분당구 불정로 432, 부근  (서현동)",37.3773426,생활방범,,2018-04-01,41,031-729-2482
경기도 성남시청,경기도 성남시 분당구 서현2동 309번지 미래어린이공원(분당37호),2010-04,,3,127.1360062,,37.3710712,어린이보호,,2018-04-01,41,031-729-2482
경기도 성남시청,경기도 성남시 분당구 서현2동 340-19번지,2012-10,,4,127.1413777,"경기도 성남시 분당구 서현로393번길 8, (서현동)",37.3758825,생활방범,,2018-04-01,200,031-729-2482
경기도 성남시청,경기도 성남시 분당구 서현2동 319번지 양영초등학교 주변,2013-10,,4,127.1396401,"경기도 성남시 분당구 불정로406번길 17, 양영초등학교  주변(서현동)",37.3746985,어린이보호,,2018-04-01,200,031-729-2482
경기도 성남시청,경기도 성남시 분당구 서현2동 329-1번지 앞,2013-10,,3,127.1387889,"경기도 성남시 분당구 서현로357번길 8, (서현동)",37.3782103,생활방범,,2018-04-01,200,031-729-2482
경기도 성남시청,경기도 성남시 분당구 서현2동 336-5번지 앞,2013-10,,3,127.1410802,"경기도 성남시 분당구 불정로426번길 5, (서현동)",37.3766601,생활방범,,2018-04-01,200,031-729-2482
경기도 성남시청,경기도 성남시 분당구 서현2동 340-5번지 앞,2013-10,,3,127.1417294,"경기도 성남시 분당구 불정로420번길 19, (서현동)",37.3754788,생활방범,,2018-04-01,200,031-729-2482
경기도 성남시청,경기도 성남시 분당구 서현2동 330-7번지,2014-12,,1,127.1401183,"경기도 성남시 분당구 서현로371번길 13, (서현동)",37.3777576,생활방범,,2018-04-01,200,031-729-2482
경기도 성남시청,경기도 성남시 분당구 서현동 314-1 수련어린이공원,2014-11,,3,127.1405197,,37.3724769,어린이보호,,2018-04-01,200,031-729-2482
경기도 성남시청,경기도 성남시 분당구 서현2동 346-11번지,2015-11,,3,127.1246814,,37.3766914,생활방범,,2018-04-01,200,031-729-2482
경기도 성남시청,경기도 성남시 분당구 서현2동 343-2 삼거리,2017-09,,5,127.137291,경기도 성남시 분당구 삼거리,37.378761,생활방범,,2018-04-01,200,031-729-2482
경기도 성남시청,경기도 성남시 분당구 서현2동 340-11,2017-12,,3,127.142571,"경기도 성남시 분당구 서현로411번길 7, (서현동)",37.375281,생활방범,,2018-04-01,200,031-729-2482
경기도 성남시청,경기도 성남시 분당구 이매1동 338-1번지 베스티아 부근,2010-04,,2,127.1372605,,37.3907334,생활방범,,2018-04-01,41,031-729-2482
경기도 성남시청,경기도 성남시 분당구 이매1동 301-7번지 갈보리교회(갈보리어린이집),2010-04,,3,127.1339472,,37.391276,생활방범,,2018-04-01,41,031-729-2482
경기도 성남시청,경기도 성남시 분당구 이매1동 65번지 부근,2010-04,,3,127.1319332,,37.3976095,생활방범,,2018-04-01,41,031-729-2482
경기도 성남시청,경기도 성남시 분당구 이매1동 293-4번지 포스파크 부근,2010-04,,5,127.134232,"경기도 성남시 분당구 이매로123번길 12, 부근(이매동, 이매포스파크)",37.3917449,생활방범,,2018-04-01,41,031-729-2482
경기도 성남시청,경기도 성남시 분당구 이매1동 128-7번지 돌마공원 화장실 주변,2011-12,,2,127.1279294,,37.3869211,어린이보호,,2018-04-01,130,031-729-2482
경기도 성남시청,경기도 성남시 분당구 이매1동 118번지 안말초등학교 정문,2012-05,,2,127.1255436,"경기도 성남시 분당구 양현로 104, 안말초등학교  정문(이매동)",37.3928805,어린이보호,,2018-04-01,130,031-729-2482
경기도 성남시청,경기도 성남시 분당구 이매1동 112번지 이매초등학교 정문,2012-05,,2,127.1260563,"경기도 성남시 분당구 양현로 146, 이매초등학교  정문(이매동)",37.3967556,어린이보호,,2018-04-01,130,031-729-2482
경기도 성남시청,경기도 성남시 분당구 이매1동 114번지 방아다리어린이공원(분당23호),2012-10,,4,127.1257899,,37.3977294,어린이보호,,2018-04-01,200,031-729-2482
경기도 성남시청,경기도 성남시 분당구 이매1동 81-8번지 (샛별선교원앞 삼거리),2013-10,,3,127.1335239,"경기도 성남시 분당구 방아로 42, (이매동)",37.3985685,생활방범,,2018-04-01,200,031-729-2482
경기도 성남시청,경기도 성남시 분당구 이매1동 262-2번지(동명유치원),2014-11,,4,127.1300553,"경기도 성남시 분당구 이매로 88, 동명유치원  (이매동)",37.3933092,어린이보호,,2018-04-01,200,031-729-2482
경기도 성남시청,경기도 성남시 분당구 이매1동 100번지(꾸러기유치원),2014-11,,5,127.1267487,"경기도 성남시 분당구 양현로 220, (이매동, 이매촌삼성10단지)",37.402897,어린이보호,,2018-04-01,200,031-729-2482
경기도 성남시청,경기도 성남시 분당구 이매1동 357-18번지,2015-02,,4,127.1317053,"경기도 성남시 분당구 이매로124번길 15, (이매동)",37.3911145,생활방범,,2018-04-01,200,031-729-2482
경기도 성남시청,경기도 성남시 분당구 이매1동 308번지 등산로입구,2015-11,,3,127.1246814,"경기도 성남시 분당구 이매로133번길 16, (이매동, 진흥아마란스)",37.3766914,생활방범,,2018-04-01,200,031-729-2482
경기도 성남시청,경기도 성남시 분당구 이매1동 127-2번지 태원지하보도(삼성아파트 1010동 앞),2015-10,,2,127.1267487,"경기도 성남시 분당구 양현로 192, 1010동 지하층  태원보도  앞(이매동, 이매촌삼성10단지)",37.402897,생활방범,,2018-04-01,200,031-729-2482
경기도 성남시청,경기도 성남시 분당구 이매1동 49-2번지,2016-09,,4,127.134711,"경기도 성남시 분당구 방아로46번길 21-10, (이매동)",37.396631,생활방범,,2018-04-01,200,031-729-2482
경기도 성남시청,경기도 성남시 분당구 이매1동 268-12,2017-09,,3,127.131711,"경기도 성남시 분당구 이매로89번길 16, (이매동)",37.394001,생활방범,,2018-04-01,200,031-729-2482
경기도 성남시청,경기도 성남시 분당구 이매1동 27번지,2017-12,,3,127.134261,"경기도 성남시 분당구 방아로 50, (이매동)",37.399151,생활방범,,2018-04-01,200,031-729-2482
경기도 성남시청,경기도 성남시 분당구 성남시 분당구 이매2동 148번지 이매길어린이공원(분당24호),2010-04,,2,127.1222566,,37.3931342,어린이보호,,2018-04-01,41,031-729-2482
경기도 성남시청,경기도 성남시 분당구 성남시 분당구 이매2동 134번지 아름어린이공원(분당21호) 매송초등학교 주변,2010-04,,3,127.1230174,,37.4025069,어린이보호,,2018-04-01,41,031-729-2482
경기도 성남시청,경기도 성남시 분당구 성남시 분당구 이매2동 152-7번지 운중천 둔치주변 이매파출소 앞,2010-09,,1,127.1237397,,37.4035458,생활방범,,2018-04-01,41,031-729-2482
경기도 성남시청,경기도 성남시 분당구 성남시 분당구 이매2동 146번지 이매고등학교 입구,2012-10,,4,127.1221561,,37.3950296,생활방범,,2018-04-01,200,031-729-2482
경기도 성남시청,경기도 성남시 분당구 성남시 분당구 이매2동 136번지 매송초등학교 주변,2013-10,,3,127.1228815,경기도 성남시 분당구 탄천로 97,37.4017034,어린이보호,,2018-04-01,200,031-729-2482
경기도 성남시청,경기도 성남시 분당구 야탑1동 399-2번지 보행자도로,2010-04,,3,127.1309837,경기도 성남시 분당구 보행자도로,37.4158894,생활방범,,2018-04-01,41,031-729-2482
경기도 성남시청,경기도 성남시 분당구 야탑1동 340번지 야탑어린이공원(분당3호),2010-04,,2,127.1304269,,37.4140037,어린이보호,,2018-04-01,41,031-729-2482
경기도 성남시청,경기도 성남시 분당구 야탑1동 388-2번지 부근,2010-04,,3,127.1318057,"경기도 성남시 분당구 매화로37번길 13-11, 부근  (야탑동)",37.4111509,생활방범,,2018-04-01,41,031-729-2482
경기도 성남시청,경기도 성남시 분당구 야탑1동 332번지 꿈동산어린이공원(분당1호),2012-10,,5,127.1260792,,37.4145775,어린이보호,,2018-04-01,200,031-729-2482
경기도 성남시청,경기도 성남시 분당구 야탑1동 385번지 탑어린이공원,2013-10,,4,127.1322281,"경기도 성남시 분당구 야탑로111번길 12-14, 탑어린이공원  (야탑동)",37.4118521,어린이보호,,2018-04-01,200,031-729-2482
경기도 성남시청,경기도 성남시 분당구 야탑1동 365번지 옆 보행자도로,2013-10,,3,127.1302593,경기도 성남시 분당구 옆보행자도로,37.4116682,생활방범,,2018-04-01,200,031-729-2482
경기도 성남시청,경기도 성남시 분당구 야탑1동 355-1번지 옆 보행자도로,2013-10,,3,127.1268318,"경기도 성남시 분당구 야탑로75번길 15, (야탑동)",37.4111742,생활방범,,2018-04-01,200,031-729-2482
경기도 성남시청,경기도 성남시 분당구 야탑1동 342-3번지,2014-12,,1,127.1255016,"경기도 성남시 분당구 장미로48번길 14, (야탑동)",37.4126511,생활방범,,2018-04-01,200,031-729-2482
경기도 성남시청,경기도 성남시 분당구 야탑1동 364-2번지,2014-12,,1,127.1292425,"경기도 성남시 분당구 성남대로 920, (야탑동)",37.4118544,생활방범,,2018-04-01,200,031-729-2482
경기도 성남시청,경기도 성남시 분당구 야탑1동 359-5번지,2014-12,,1,127.1281472,"경기도 성남시 분당구 성남대로 919, (야탑동)",37.4117638,생활방범,,2018-04-01,200,031-729-2482
경기도 성남시청,경기도 성남시 분당구 야탑1동 389번지 성마르코유치원,2015-10,,1,127.1259045,"경기도 성남시 분당구 매화로37번길 5, 성마르코유치원  (야탑동)",37.4162652,어린이보호,,2018-04-01,200,031-729-2482
경기도 성남시청,경기도 성남시 분당구 야탑1동 383-6번지 맞은편,2015-11,,3,127.1246814,"경기도 성남시 분당구 장미로108번길 13-1, 맞은편  (야탑동)",37.3766914,생활방범,,2018-04-01,200,031-729-2482
경기도 성남시청,경기도 성남시 분당구 야탑1동 341번지(탄천방향 장미로 버스 출입구),2017-12,,3,127.126981,"경기도 성남시 분당구 성남대로925번길 16, 버스출입구  (야탑동)",37.412391,생활방범,,2018-04-01,200,031-729-2482
경기도 성남시청,경기도 성남시 분당구 성남시 분당구 야탑2동 521번지 탑골어린이공원(분당16호),2010-04,,2,127.1363293,,37.4083528,어린이보호,,2018-04-01,41,031-729-2482
경기도 성남시청,경기도 성남시 분당구 성남시 분당구 야탑2동 534번지 종달새어린이공원(분당11호),2010-04,,2,127.1232851,,37.4065842,어린이보호,,2018-04-01,41,031-729-2482
경기도 성남시청,경기도 성남시 분당구 성남시 분당구 야탑2동 524번지 무장들어린이공원(분당15호),2010-04,,2,127.1310191,,37.4077388,어린이보호,,2018-04-01,41,031-729-2482
경기도 성남시청,경기도 성남시 분당구 성남시 분당구 야탑2동 509번지 오야소어린이공원(분당12호),2010-04,,3,127.1268844,,37.4079394,어린이보호,,2018-04-01,41,031-729-2482
경기도 성남시청,경기도 성남시 분당구 성남시 분당구 야탑2동 515번지 돌마초등학교 주변,2013-10,,3,127.130117,경기도 성남시 분당구 야탑로 96-7,37.4090206,어린이보호,,2018-04-01,200,031-729-2482
경기도 성남시청,경기도 성남시 분당구 성남시 분당구 야탑2동 536번지(늘사랑어린이집),2014-11,,1,127.1212913,경기도 성남시 분당구 야탑로 20,37.4076944,어린이보호,,2018-04-01,200,031-729-2482
경기도 성남시청,경기도 성남시 분당구 성남시 분당구 야탑2동 538번지 108동 111동 사이,2015-11,,3,127.1246814,,37.3766914,생활방범,,2018-04-01,200,031-729-2482
경기도 성남시청,경기도 성남시 분당구 성남시 분당구 야탑2동 540-4번지 하탑지하보도(탑마을 511동 앞),2015-10,,2,127.118925,,37.382821,생활방범,,2018-04-01,200,031-729-2482
경기도 성남시청,경기도 성남시 분당구 야탑9교,2017-12,,4,127.128731,,37.407751,생활방범,,2018-04-01,200,031-729-2482
경기도 성남시청,경기도 성남시 분당구 야탑3동 172번지 성은특수학교,2010-04,,4,127.1444121,"경기도 성남시 분당구 돌마로 866, 성은특수학교  (야탑동)",37.4090454,어린이보호,,2018-04-01,41,031-729-2482
경기도 성남시청,경기도 성남시 분당구 야탑3동 277-9번지 부근,2010-04,,3,127.1373885,"경기도 성남시 분당구 장미로148번길 5, 부근  (야탑동)",37.4125699,생활방범,,2018-04-01,41,031-729-2482
경기도 성남시청,경기도 성남시 분당구 야탑3동 493-8번지 영덕여고 부근,2010-04,,3,127.1378821,"경기도 성남시 분당구 판교로572번길 9, 영덕여고부근  (야탑동)",37.4071835,생활방범,,2018-04-01,41,031-729-2482
경기도 성남시청,경기도 성남시 분당구 야탑3동 271번지 상희공원 부근,2010-04,,3,127.141276,,37.4110531,어린이보호,,2018-04-01,41,031-729-2482
경기도 성남시청,경기도 성남시 분당구 야탑3동 301번지 중탑어린이공원(분당9호),2011-11,,5,127.1363041,"경기도 성남시 분당구 매화로48번길 17-4, 중탑어린이공원분당 9호 (야탑동)",37.4118925,어린이보호,,2018-04-01,130,031-729-2482
경기도 성남시청,경기도 성남시 분당구 야탑3동 212번지 중탑초등학교 정문,2012-05,,2,127.1394636,"경기도 성남시 분당구 벌말로 68, 중탑초등학교  정문(야탑동)",37.4136947,어린이보호,,2018-04-01,130,031-729-2482
경기도 성남시청,경기도 성남시 분당구 야탑3동 192-1번지,2013-03,,2,127.1555488,"경기도 성남시 분당구 판교로743번길 6, (야탑동)",37.405935,생활방범,,2018-04-01,200,031-729-2482
경기도 성남시청,경기도 성남시 분당구 야탑3동 164번지 신일어린이공원,2013-10,,4,127.1441091,,37.4071935,어린이보호,,2018-04-01,200,031-729-2482
경기도 성남시청,경기도 성남시 분당구 야탑3동 167번지 목련어린이공원,2013-10,,3,127.1391902,,37.4078383,어린이보호,,2018-04-01,200,031-729-2482
경기도 성남시청,경기도 성남시 분당구 야탑3동 213-1번지 숲속어린이공원,2013-10,,3,127.1403862,,37.4140242,어린이보호,,2018-04-01,200,031-729-2482
경기도 성남시청,경기도 성남시 분당구 야탑3동 472-3번지,2013-10,,3,127.1372643,"경기도 성남시 분당구 판교로552번길 26-1, (야탑동)",37.4066767,생활방범,,2018-04-01,200,031-729-2482
경기도 성남시청,경기도 성남시 분당구 야탑3동 214-1 매향어린이공원,2014-03,,1,127.1374109,,37.4146908,어린이보호,,2018-04-01,200,031-729-2482
경기도 성남시청,경기도 성남시 분당구 야탑3동 208 새싹어린이공원,2014-03,,1,127.1411012,,37.4154567,어린이보호,,2018-04-01,200,031-729-2482
경기도 성남시청,경기도 성남시 분당구 서현2동 343-3번지 서당지하보도(동아아파트 209동 앞),2015-10,,2,127.1355449,"경기도 성남시 분당구 돌마로486번길 7, 209동 지하층  서당보도  앞(서현동, 효자촌동아2단지)",37.3777807,생활방범,,2018-04-01,200,031-729-2482
경기도 성남시청,경기도 성남시 분당구 야탑3동 397번지(배성유치원),2014-11,,1,127.1423122,"경기도 성남시 분당구 판교로 624-1, 배성유치원  (야탑동)",37.4061324,어린이보호,,2018-04-01,200,031-729-2482
경기도 성남시청,경기도 성남시 분당구 야탑3동 207-2번지(뽀뽀뽀유치원),2014-11,,4,127.138813,"경기도 성남시 분당구 양현로 515, 뽀뽀뽀유치원  (야탑동)",37.4150272,어린이보호,,2018-04-01,200,031-729-2482
경기도 성남시청,경기도 성남시 분당구 야탑3동 480-2번지,2016-09,,4,127.135721,"경기도 성남시 분당구 판교로562번길 1, (야탑동)",37.407081,생활방범,,2018-04-01,200,031-729-2482
경기도 성남시청,경기도 성남시 중원구 금광1동 543,2009-12,,1,127.1619696,"경기도 성남시 중원구 희망로406번길 19, (금광동)",37.4425385,쓰레기단속,,2018-04-01,41,031-729-2482
경기도 성남시청,경기도 성남시 중원구 상대원1동 1749(건물 부착),2009-04,,1,127.1617011,"경기도 성남시 중원구 둔촌대로401번길 2, 5동  (상대원동, 국제맨션5차)",37.4335782,쓰레기단속,,2018-04-01,41,031-729-2482
경기도 성남시청,경기도 성남시 중원구 상대원2동 3956,2011-09,,1,127.1550312,"경기도 성남시 중원구 희망로353번길 28, (상대원동)",37.4373755,쓰레기단속,,2018-04-01,41,031-729-2482
경기도 성남시청,경기도 성남시 중원구 하대원동 153 성남방송고교 담 (161번지 맞은편 전주),2008-07,,1,127.1475589,"경기도 성남시 중원구 둔촌대로258번길 7, 성남방송고등학교 161호 담 번지 맞은편 전(하대원동)",37.4274696,쓰레기단속,,2018-04-01,41,031-729-2482
경기도 성남시청,경기도 성남시 분당구 판교동 500번지 판교공원 내 (원마을 13단지 방향),2011-06,,1,127.0949281,"경기도 성남시 분당구 서판교로180번길 18-2, 판교공원내원마을13단지  방향(판교동)",37.4022329,어린이보호,,2018-04-01,41,031-729-2482
경기도 성남시청,경기도 성남시 분당구 판교동 480-5번지 E13-1블럭 내 (경부고속도로 방향),2011-06,,1,127.092432,,37.403257,생활방범,,2018-04-01,41,031-729-2482
경기도 성남시청,경기도 성남시 분당구 판교동 491-2번지 E13-1블럭 내 (자립형 고등학교 방향),2011-06,,1,127.0933156,"경기도 성남시 분당구 서판교로180번길 3-3, 내자립형고등학교 E13동  방향(판교동)",37.4019685,생활방범,,2018-04-01,41,031-729-2482
경기도 성남시청,경기도 성남시 분당구 판교동 500-8번지 E13-1블럭 내부 삼평고(가칭) 후문방향,2011-06,,1,127.0953909,,37.4016558,생활방범,,2018-04-01,41,031-729-2482
경기도 성남시청,경기도 성남시 분당구 백현동 523번지 낙생대 공원 내부 팔각정 입구 사거리,2011-06,,1,127.1061234,"경기도 성남시 분당구 판교역로 75, 낙생대공원내부  팔각정 입구(백현동)",37.3868947,어린이보호,,2018-04-01,41,031-729-2482
경기도 성남시청,경기도 성남시 분당구 백현동 523번지 생태공원 내부 (2),2011-06,,1,127.1061234,"경기도 성남시 분당구 판교역로 75, 생태공원내부 2호 (백현동)",37.3868947,생활방범,,2018-04-01,41,031-729-2482
경기도 성남시청,경기도 성남시 분당구 백현동 559번지 신백현초 후문(변경전 : 백현동 566-3번지),2011-06,,3,127.1119429,"경기도 성남시 분당구 판교역로14번길 42, 신백현초후문변경전 566동 3호 : 백현동 번지(백현동)",37.3872477,생활방범,,2018-04-01,200,031-729-2482
경기도 성남시청,경기도 성남시 분당구 백현동 565번지 맞은편(변경전 : 백현동 600-5번지),2011-06,,1,127.1110003,"경기도 성남시 분당구 판교역로18번길 30, 맞은편변경전:백현동 600동 5호 번지(백현동)",37.3862453,생활방범,,2018-04-01,200,031-729-2482
경기도 성남시청,경기도 성남시 분당구 운중동 953번지 산운마을 10단지 뒷편(운중천변) 운중공원 입구,2011-06,,3,127.0732102,"경기도 성남시 분당구 판교원로81번길 15, 뒷편 운중천변 운중공원 입구(운중동, 산운마을대광로제비앙10단지)",37.3903045,생활방범,,2018-04-01,41,031-729-2482
경기도 성남시청,경기도 성남시 판교동 651-1번지 낙생고앞,2011-06,,1,127.1017312,,37.3897387,교통단속,,2018-04-01,41,031-729-2482
경기도 성남시청,경기도 성남시 백현동 537번지 환승주차장삼거리-상행,2011-06,,1,127.091844,"경기도 성남시 분당구 판교역로 152, 상행  (백현동)",37.3801584,교통단속,,2018-04-01,200,031-729-2482
경기도 성남시청,경기도 성남시 분당구 운중동 1027-6번지 F4-1블럭 주택지역 내 보행자 출입로 입구,2011-06,,1,127.082647,경기도 성남시 분당구 내보행자출입로,37.390654,생활방범,,2018-04-01,41,031-729-2482
경기도 성남시청,경기도 성남시 분당구 운중동 1035-7번지 E6-1블럭 보행자통로(운중천 운중천육교) 앞,2011-06,,1,127.0822771,"경기도 성남시 분당구 운중로166번길 19-13, 운중천운중천육교앞 E6동  (운중동)",37.3891917,생활방범,,2018-04-01,41,031-729-2482
경기도 성남시청,경기도 성남시 분당구 운중동 915번지 산운마을 14단지(1412동) 앞 두밀공원 내,2011-06,,1,127.0719326,"경기도 성남시 분당구 판교원로82번길 60, 1412동  앞 두밀공원 내(운중동, 산운마을경남아너스빌14단지)",37.3835428,어린이보호,,2018-04-01,41,031-729-2482
경기도 성남시청,경기도 성남시 하대원동 143-1,2006-07,,1,127.1488398,"경기도 성남시 중원구 둔촌대로 274, (하대원동, 태연스카이빌)",37.4287935,교통단속,,2018-04-01,200,031-729-2482
경기도 성남시청,경기도 성남시 하대원동 123번지 검단초등학교 주변,2014-03,,1,127.1437073,"경기도 성남시 중원구 원터로 25, 검단초등학교  주변(하대원동)",37.4293045,교통단속,,2018-04-01,200,031-729-2482
경기도 성남시청,경기도 성남시 금광2동 11,2006-07,,1,127.158582,"경기도 성남시 중원구 산성대로372번길 14, (금광동)",37.4447193,교통단속,,2018-04-01,200,031-729-2482
경기도 성남시청,경기도 성남시 은행1동 421번지 상원초등학교 주변,2014-03,,1,127.1625936,"경기도 성남시 중원구 은행로 6, 상원초등학교  주변(은행동)",37.4540241,교통단속,,2018-04-01,200,031-729-2482
경기도 성남시청,경기도 성남시 상대원1동 124-9,2014-12,,1,127.1791343,,37.4449422,교통단속,,2018-04-01,200,031-729-2482
경기도 성남시청,경기도 성남시 상대원1동 54번지 상대원초등학교 주변,2014-03,,1,127.180953,"경기도 성남시 중원구 순환로214번길 16, 상대원초등학교  주변(상대원동)",37.442221,교통단속,,2018-04-01,200,031-729-2482
경기도 성남시청,경기도 성남시 백현동 551번지 백현사거리 율곡초교,2011-06,,1,127.0994353,"경기도 성남시 분당구 동판교로 59, 율곡초등학교  (백현동)",37.3801157,교통단속,,2018-04-01,41,031-729-2482
경기도 성남시청,경기도 성남시 수정구 태평4동 7289번지 금빛초등학교,2010-04,,3,127.1400052,"경기도 성남시 수정구 남문로 112, 금빛초등학교  (태평동)",37.4472692,어린이보호,,2018-04-01,41,031-729-2482
경기도 성남시청,경기도 성남시 수정구 태평4동 7289번지(금빛초정문앞사거리),2013-10,,3,127.1400052,"경기도 성남시 수정구 남문로 112, (태평동)",37.4472692,생활방범,,2018-04-01,200,031-729-2482
경기도 성남시청,경기도 성남시 수정구 태평4동 2084번지,2014-12,,1,127.1421263,"경기도 성남시 수정구 남문로145번길 7-1, (태평동)",37.4491419,생활방범,,2018-04-01,200,031-729-2482
경기도 성남시청,경기도 성남시 수정구 태평4동 7289번지(금빛초등학교),2014-11,,4,127.1400052,"경기도 성남시 수정구 남문로 112, 금빛초등학교  (태평동)",37.4472692,어린이보호,,2018-04-01,200,031-729-2482
경기도 성남시청,경기도 성남시 수정구 태평4동 7302-12번지 맞은편,2015-09,,3,127.143231,"경기도 성남시 수정구 공원로409번길 10-10, 맞은편  (태평동)",37.447221,생활방범,,2018-04-01,200,031-729-2482
경기도 성남시청,경기도 성남시 수정구 수진1동 311번지 사팔구공인중개사부근,2010-04,,5,127.1338551,"경기도 성남시 수정구 수정남로 54-1, 사팔구공인중개사부근  (수진동)",37.4406114,생활방범,,2018-04-01,41,031-729-2482
경기도 성남시청,경기도 성남시 중원구 성남동 3273번지,2013-03,,2,127.1326056,"경기도 성남시 중원구 성남대로1148번길 31, (성남동)",37.4331168,생활방범,,2018-04-01,200,031-729-2482
경기도 성남시청,경기도 성남시 중원구 성남동 3014번지,2013-10,,3,127.1412087,"경기도 성남시 중원구 원터로93번길 25-12, C동  (성남동, 금호빌라)",37.433597,생활방범,,2018-04-01,200,031-729-2482
경기도 성남시청,경기도 성남시 분당구 판교동 523-9번지 E12-1블럭 내 자동크린넷 앞 (판교로 방면),2011-06,,1,127.0975341,,37.4003236,생활방범,,2018-04-01,41,031-729-2482
경기도 성남시청,경기도 성남시 분당구 운중동 892-11번지 운중초등학교 정문 뒤,2011-06,,4,127.0762227,경기도 성남시 분당구 운중로45번길 8,37.3932106,어린이보호,,2018-04-01,200,031-729-2482
경기도 성남시청,경기도 성남시 분당구 운중동 903-2번지 E2-2블럭 보행자출입구 도로 건너편,2011-06,,1,127.0696909,경기도 성남시 분당구 도로,37.388566,생활방범,,2018-04-01,41,031-729-2482
경기도 성남시청,경기도 성남시 분당구 운중동 956-1번지 체육1공원 내 (산운마을 8단지 보행자출입로 앞),2011-06,,1,127.0703295,경기도 성남시 분당구 보행자출입로,37.3923805,어린이보호,,2018-04-01,41,031-729-2482
경기도 성남시청,경기도 성남시 분당구 운중동 989번지 산운마을 5단지 뒷편 (외곽순환도로 아래),2011-06,,1,127.0721054,"경기도 성남시 분당구 산운로 97, 뒷편 아래(운중동, 산운마을한성필하우스5단지)",37.3938401,생활방범,,2018-04-01,41,031-729-2482
경기도 성남시청,경기도 성남시 분당구 운중동 921-2번지 산운마을 11단지 도로 건너편 보행자육교 입구,2011-06,,1,127.0716351,"경기도 성남시 분당구 판교원로 68, 건너편 보행자육교 입구(운중동, 산운마을주공휴먼시아11단지)",37.3897408,생활방범,,2018-04-01,200,031-729-2482
경기도 성남시청,경기도 성남시 분당구 운중동 1009번지 E5-1블럭 주택지역 내,2011-06,,1,127.0839204,,37.3920087,생활방범,,2018-04-01,41,031-729-2482
경기도 성남시청,경기도 성남시 이매2동 106-4 이매119 건너편,2008-09,,1,127.1266383,경기도 성남시 분당구 성남대로779번길 15,37.3988602,교통단속,,2018-04-01,200,031-729-2482
경기도 성남시청,경기도 성남시 이매2동 136번지 매송초등학교 주변,2014-03,,1,127.1228619,"경기도 성남시 분당구 탄천로 97, 매송초등학교  주변(이매동)",37.4018892,교통단속,,2018-04-01,200,031-729-2482
경기도 성남시청,경기도 성남시 여수동 309,2016-04,,1,127.1257281,"경기도 성남시 중원구 성남대로997번길 51-14, (여수동)",37.4170227,교통단속,,2018-04-01,200,031-729-2482
경기도 성남시청,경기도 성남시 분당동 91번지 장안초등학교 주변,2014-03,,1,127.144321,"경기도 성남시 분당구 장안로51번길 10, 장안초등학교  동 주변(분당동)",37.372451,교통단속,,2018-04-01,200,031-729-2482
경기도 성남시청,경기도 성남시 수내1동 21-3 판테온부근,2010-01,,1,127.1117674,"경기도 성남시 분당구 황새울로200번길 9-7, 판테온부근  (수내동)",37.3777825,교통단속,,2018-04-01,200,031-729-2482
경기도 성남시청,경기도 성남시 분당구 운중동 990번지 산운마을 6단지 뒷편 청계공원 내,2011-06,,1,127.0787416,"경기도 성남시 분당구 산운로 121, 뒷편 청계공원 내(운중동, 산운마을주공휴먼시아6단지)",37.3964263,어린이보호,,2018-04-01,41,031-729-2482
경기도 성남시청,경기도 성남시 분당구 운중동 1047-7번지 E6-2블럭 주택지역 내 소도로 및 보행자출입구(쓰레기 투입구),2011-06,,1,127.0844104,경기도 성남시 분당구 내소도로,37.3884543,생활방범,,2018-04-01,41,031-729-2482
경기도 성남시청,경기도 성남시 야탑2동 533-5 남서울프라자 국민은행앞,2006-08,,1,127.1227655,"경기도 성남시 분당구 판교로 441, 남서울프라자  국민은행앞(야탑동)",37.4057237,교통단속,,2018-04-01,200,031-729-2482
경기도 성남시청,경기도 성남시 야탑2동 531번지 하탑초등학교 주변,2014-03,,1,127.1261818,"경기도 성남시 분당구 양현로 262, 하탑초등학교  주변(야탑동)",37.4073625,교통단속,,2018-04-01,200,031-729-2482
경기도 성남시청,경기도 성남시 금곡동 153 미금역2번출구 썬프라자,2006-08,,1,127.108952,"경기도 성남시 분당구 돌마로 79, 썬프라자 2호 미금역번출구(금곡동)",37.350078,교통단속,,2018-04-01,200,031-729-2482
경기도 성남시청,경기도 성남시 금곡동 90-4번지 국지도23호쇳골입구삼거리,2011-06,,1,127.1022367,경기도 성남시 분당구 쇳골입구삼거리,37.362877,교통단속,,2018-04-01,200,031-729-2482
경기도 성남시청,경기도 성남시 수정구 수진2동 3483번지,2013-10,,3,127.1319109,"경기도 성남시 수정구 수정남로30번길 15, (수진동)",37.4386353,생활방범,,2018-04-01,200,031-729-2482
경기도 성남시청,경기도 성남시 중원구 성남동 4177번지,2013-10,,3,127.1284086,"경기도 성남시 중원구 둔촌대로83번길 4, (성남동)",37.4305576,생활방범,,2018-04-01,200,031-729-2482
경기도 성남시청,경기도 성남시 중원구 성남동 1486번지 중원도서관 앞 삼거리,2014-06,,4,127.1402736,경기도 성남시 중원구 중원도서관앞삼거리,37.4297442,생활방범,,2018-04-01,200,031-729-2482
경기도 성남시청,경기도 성남시 중원구 성남동 4226번지 모란시장 기름집,2014-06,,3,127.1276909,"경기도 성남시 중원구 둔촌대로69번길 10-15, 모란시장  기름집(성남동)",37.4309072,생활방범,,2018-04-01,200,031-729-2482
경기도 성남시청,경기도 성남시 중원구 성남동 3912번지,2015-09,,3,127.134681,"경기도 성남시 중원구 제일로43번길 18-9, (성남동)",37.430251,생활방범,,2018-04-01,200,031-729-2482
경기도 성남시청,경기도 성남시 중원구 성남동 2179번지,2016-09,,4,127.141121,"경기도 성남시 중원구 광명로 111, (성남동)",37.436201,생활방범,,2018-04-01,200,031-729-2482
경기도 성남시청,경기도 성남시 중원구 성남동 3428번지,2017-11,,5,127.131061,"경기도 성남시 중원구 성남대로1148번길 18, (성남동)",37.432631,생활방범,,2018-04-01,200,031-729-2482
경기도 성남시청,경기도 성남시 중원구 중앙동 2169번지 제4공영주차장 옥상 축복어린이놀이터,2009-05,,1,127.1545149,"경기도 성남시 중원구 광명로242번길 20, 공영주차장옥상축복어린이놀이터 4호 제(중앙동)",37.4406507,생활방범,,2018-04-01,41,031-729-2482
경기도 성남시청,경기도 성남시 중원구 중앙동 2041번지 골목길,2009-05,,1,127.1554462,"경기도 성남시 중원구 광명로256번길 3-5, (중앙동)",37.442686,생활방범,,2018-04-01,41,031-729-2482
경기도 성남시청,경기도 성남시 중원구 상대원2동 2992-4번지 마흔쟁이어린이놀이터,2012-10,,5,127.1619537,"경기도 성남시 중원구 금상로57번길 7-3, 마흔쟁이어린이놀이터  (상대원동)",37.4405776,어린이보호,,2018-04-01,200,031-729-2482
경기도 성남시청,경기도 성남시 중원구 상대원2동 2991-13번지(호프집 앞),2013-10,,3,127.160618,"경기도 성남시 중원구 희망로392번길 9, 호프집앞  (상대원동)",37.4401219,생활방범,,2018-04-01,200,031-729-2482
경기도 성남시청,경기도 성남시 중원구 상대원2동 4954번지,2013-10,,3,127.1552085,"경기도 성남시 중원구 희망로327번길 26, 1동  (상대원동)",37.4351509,생활방범,,2018-04-01,200,031-729-2482
경기도 성남시청,경기도 성남시 중원구 상대원2동 3001-3번지,2015-09,,3,127.159131,,37.440131,생활방범,,2018-04-01,200,031-729-2482
경기도 성남시청,경기도 성남시 중원구 상대원3동 2511 대일초등학교 부근,2010-04,,2,127.1639486,"경기도 성남시 중원구 금상로58번길 22, 대일초등학교  부근(상대원동)",37.4386682,어린이보호,,2018-04-01,41,031-729-2482
경기도 성남시청,경기도 성남시 분당구 판교동 519-8번지 E12-1블럭 내 소도로 (낙원중학교 앞),2011-06,,1,127.0970261,경기도 성남시 분당구 내소도로,37.3996022,생활방범,,2018-04-01,41,031-729-2482
경기도 성남시청,경기도 성남시 분당구 백현동 606번지 물방울어린이공원 내부(변경전 : 백현동 646번지),2011-06,,2,127.115741,,37.386901,어린이보호,,2018-04-01,41,031-729-2482
경기도 성남시청,경기도 성남시 분당구 백현동 595번지 보행자도로 입구(변경전 : 백현동 634-4번지),2011-06,,1,127.1135952,"경기도 성남시 분당구 동판교로52번길 14-7, 입구변경전 634동 4호 : 백현동 번지(백현동)",37.3867145,생활방범,,2018-04-01,200,031-729-2482
경기도 성남시청,경기도 성남시 분당구 백현동 590-3번지 보행자도로 입구(변경전 : 백현동 628-12번지),2011-06,,1,127.1140693,"경기도 성남시 분당구 동판교로52번길 21-3, 입구변경전 628동 12호 : 백현동 번지(백현동)",37.3860959,생활방범,,2018-04-01,200,031-729-2482
경기도 성남시청,경기도 성남시 분당구 백현동 554-3번지 백현마을 6단지 상가 앞,2011-06,,1,127.1111992,"경기도 성남시 분당구 판교역로 100, 상가 앞(백현동, 백현마을6단지주공아파트)",37.3905941,생활방범,,2018-04-01,200,031-729-2482
경기도 성남시청,경기도 성남시 분당구 백현동 523번지 백현마을 9단지 뒷편(낙생대공원) 체육공원 내부,2011-06,,1,127.1061234,"경기도 성남시 분당구 판교역로 49, 뒷편 낙생대공원 체육공원 내부(백현동, 백현마을9단지E편한세상아파트)",37.3868947,어린이보호,,2018-04-01,41,031-729-2482
경기도 성남시청,경기도 성남시 분당구 수내3동 110번지 녹색경로당앞 사거리,2009-05,,1,127.1281961,"경기도 성남시 분당구 발이봉로 17, (수내동)",37.3647201,생활방범,,2018-04-01,41,031-729-2482
경기도 성남시청,경기도 성남시 분당구 수내3동 109-1번지,2012-10,,4,127.1285791,"경기도 성남시 분당구 발이봉남로 39, (수내동)",37.3629716,생활방범,,2018-04-01,200,031-729-2482
경기도 성남시청,경기도 성남시 분당구 수내3동 81번지 수내초등학교(아름다운유치원) 주변,2013-10,,3,127.1243415,"경기도 성남시 분당구 백현로243번길 12, 수내초등학교  아름다운유치원 주변(수내동)",37.367583,어린이보호,,2018-04-01,200,031-729-2482
경기도 성남시청,경기도 성남시 분당구 수내3동 116-9번지 맞은편 공원쪽,2013-10,,3,127.131143,"경기도 성남시 분당구 발이봉북로 47, 맞은편공원쪽  (수내동)",37.364091,생활방범,,2018-04-01,200,031-729-2482
경기도 성남시청,경기도 성남시 수정구 태평3동 3642번지,2013-03,,2,127.1347297,"경기도 성남시 수정구 수정북로 46-1, (태평동)",37.4425387,생활방범,,2018-04-01,200,031-729-2482
경기도 성남시청,경기도 성남시 수정구 태평3동 4825번지 이화유치원 주변,2013-10,,5,127.132408,"경기도 성남시 수정구 태평로48번길 11, 이화유치원주변  (태평동)",37.4482051,어린이보호,,2018-04-01,200,031-729-2482
경기도 성남시청,경기도 성남시 수정구 태평3동 3558번지 은서유치원 주변,2013-10,,4,127.1349393,"경기도 성남시 수정구 탄리로95번길 7-17, 은서유치원주변  (태평동)",37.4436366,어린이보호,,2018-04-01,200,031-729-2482
경기도 성남시청,경기도 성남시 수정구 태평3동 3921번지,2013-10,,3,127.1330181,"경기도 성남시 수정구 남문로57번길 3, 2동  (태평동, 대양빌딩)",37.4460644,생활방범,,2018-04-01,200,031-729-2482
경기도 성남시청,경기도 성남시 수정구 태평3동 3798번지(태평오거리),2013-10,,3,127.1341888,"경기도 성남시 수정구 남문로 66, (태평동)",37.4459195,생활방범,,2018-04-01,200,031-729-2482
경기도 성남시청,경기도 성남시 수정구 태평3동 3693-28번지,2014-12,,1,127.1323695,"경기도 성남시 수정구 수정로111번길 12, (태평동)",37.4421619,생활방범,,2018-04-01,200,031-729-2482
경기도 성남시청,경기도 성남시 수정구 태평3동 3756번지(수진초등학교),2014-11,,5,127.1331439,"경기도 성남시 수정구 탄리로95번길 16, 수진초등학교  (태평동)",37.4443519,어린이보호,,2018-04-01,200,031-729-2482
경기도 성남시청,경기도 성남시 수정구 태평3동 7329-2번지(해오름어린이집),2014-11,,1,127.1428932,"경기도 성남시 수정구 수정로217번길 11, 해오름어린이집  (태평동)",37.4455444,어린이보호,,2018-04-01,200,031-729-2482
경기도 성남시청,경기도 성남시 수정구 태평3동 4662번지 맞은편 아파트화단,2015-09,,3,127.131361,"경기도 성남시 수정구 제일로238번길 24, 맞은편아파트  화단(태평동)",37.448081,생활방범,,2018-04-01,200,031-729-2482
경기도 성남시청,경기도 성남시 수정구 태평3동 3638번지,2015-10,,4,127.133991,"경기도 성남시 수정구 수정북로 40-1, (태평동)",37.442371,생활방범,,2018-04-01,200,031-729-2482
경기도 성남시청,경기도 성남시 수정구 태평3동 4846번지,2017-12,,5,127.133151,"경기도 성남시 수정구 남문로63번길 15-2, (태평동)",37.447241,생활방범,,2018-04-01,200,031-729-2482
경기도 성남시청,경기도 성남시 수진2동 2962,2006-08,,1,127.1301646,"경기도 성남시 수정구 수정로 88, (수진동)",37.4401606,교통단속,,2018-04-01,200,031-729-2482
경기도 성남시청,경기도 성남시 수진2동 4538,2009-11,,1,127.1274295,"경기도 성남시 수정구 성남대로 1227, (수진동)",37.4393168,교통단속,,2018-04-01,41,031-729-2482
경기도 성남시청,경기도 성남시 수진2동 2929,2006-09,,1,127.1316816,"경기도 성남시 수정구 제일로 159, (수진동)",37.4406042,교통단속,,2018-04-01,200,031-729-2482
경기도 성남시청,경기도 성남시 단대동 80번지 단대초등학교 정문,2013-06,,1,127.157483,"경기도 성남시 수정구 단대로 30, 단대초등학교  정문(단대동)",37.453163,교통단속,,2018-04-01,200,031-729-2482
경기도 성남시청,경기도 성남시 수정구 수진2동 4780-2번지,2014-06,,4,127.1271654,"경기도 성남시 수정구 모란로 33, (수진동, 흥일빌라)",37.4361642,생활방범,,2018-04-01,200,031-729-2482
경기도 성남시청,경기도 성남시 수정구 수진2동 4347번지(수정초등학교),2014-11,,1,127.1319659,"경기도 성남시 수정구 제일로123번길 9, 수정초등학교  (수진동)",37.4366078,어린이보호,,2018-04-01,200,031-729-2482
경기도 성남시청,경기도 성남시 수정구 수진2동 4690-29번지 (탄천진입통로),2015-11,,2,127.120791,경기도 성남시 수정구 탄천진입통로,37.440021,생활방범,,2018-04-01,200,031-729-2482
경기도 성남시청,경기도 성남시 수정구 단대동 75번지 단대초등학교 후문,2010-04,,2,127.1592237,"경기도 성남시 수정구 단대로 30, 단대초등학교  후문(단대동)",37.4530176,어린이보호,,2018-04-01,41,031-729-2482
경기도 성남시청,경기도 성남시 중원구 중앙동 2985번지 제일초등학교 담장길,2009-05,,1,127.1493631,"경기도 성남시 중원구 시민로104번길 37, 제일초등학교  (중앙동)",37.4393802,어린이보호,,2018-04-01,41,031-729-2482
경기도 성남시청,경기도 성남시 수정구 태평3동 4452번지,2017-12,,5,127.130381,"경기도 성남시 수정구 남문로39번길 23, (태평동)",37.447091,생활방범,,2018-04-01,200,031-729-2482
경기도 성남시청,경기도 성남시 수정구 태평3동 3705-2번지,2017-12,,4,127.131421,"경기도 성남시 수정구 수정북로21번길 16-1, (태평동, 중앙빌라)",37.443181,생활방범,,2018-04-01,200,031-729-2482
경기도 성남시청,경기도 성남시 수정구 태평4동 7332-2번지 에녹스익스프레스 부근,2010-04,,3,127.1414237,"경기도 성남시 수정구 수정북로 113, 에녹스익스프레스부근  (태평동)",37.4450564,생활방범,,2018-04-01,41,031-729-2482
경기도 성남시청,경기도 성남시 수정구 태평4동 7326번지 성남초등학교 뒷편 담장 부근,2010-04,,3,127.1442797,"경기도 성남시 수정구 수정로 233, 성남초등학교  뒷편 담장 부근(태평동)",37.4458791,어린이보호,,2018-04-01,41,031-729-2482
경기도 성남시청,경기도 성남시 수정구 태평4동 1824번지 대성공인중개사 부근,2010-04,,3,127.1407648,"경기도 성남시 수정구 남문로133번길 18, 대성공인중개사부근  (태평동)",37.4495567,생활방범,,2018-04-01,41,031-729-2482
경기도 성남시청,경기도 성남시 수정구 태평4동 7314-4번지 부근,2010-04,,3,127.1401811,"경기도 성남시 수정구 시민로197번길 16, (태평동, 신한빌라)",37.4451063,생활방범,,2018-04-01,41,031-729-2482
경기도 성남시청,경기도 성남시 수정구 상적동 248-12번지,2017-12,,3,127.072191,"경기도 성남시 수정구 달래내로369번길 9, (상적동)",37.426241,생활방범,,2018-04-01,200,031-729-2482
경기도 성남시청,경기도 성남시 수정구 금토동 270-18번지 금토동 제1어린이놀이터,2012-10,,5,127.0970626,,37.408964,어린이보호,,2018-04-01,200,031-729-2482
경기도 성남시청,경기도 성남시 수정구 금토동 224-1번지 금토동 제2어린이놀이터,2012-10,,5,127.0864219,,37.4112573,어린이보호,,2018-04-01,200,031-729-2482
경기도 성남시청,경기도 성남시 수정구 시흥동 83-6번지 시흥동 놀이터소공원,2013-10,,4,127.1040262,,37.4208823,어린이보호,,2018-04-01,200,031-729-2482
경기도 성남시청,경기도 성남시 수정구 사송동 531-1(531(전)번지 앞),2013-10,,3,127.1103863,,37.4172943,생활방범,,2018-04-01,200,031-729-2482
경기도 성남시청,경기도 성남시 수정구 사송동 558-7번지 사송동어린이놀이터,2014-03,,1,127.1132069,,37.4153253,어린이보호,,2018-04-01,200,031-729-2482
경기도 성남시청,경기도 성남시 수정구 금토동 93-7번지,2014-06,,4,127.0810751,,37.4172547,생활방범,,2018-04-01,200,031-729-2482
경기도 성남시청,경기도 성남시 수정구 금토동 422-11번지,2014-12,,1,127.0843706,,37.406452,생활방범,,2018-04-01,200,031-729-2482
경기도 성남시청,경기도 성남시 수정구 사송동 374번지,2015-09,,3,127.113901,"경기도 성남시 수정구 사송로77번길 52, (사송동)",37.410411,생활방범,,2018-04-01,200,031-729-2482
경기도 성남시청,경기도 성남시 수정구 금토동 410-29번지 경부고속도로 지하교각부근,2010-09,,2,127.0911318,경기도 성남시 수정구 경부고속도로,37.4082396,생활방범,,2018-04-01,200,031-729-2482
경기도 성남시청,경기도 성남시 수정구 시흥동 211-1번지 맞은편,2016-06,,3,127.099861,"경기도 성남시 수정구 대왕판교로915번길 32, 맞은편  (시흥동)",37.423031,생활방범,,2018-04-01,200,031-729-2482
경기도 성남시청,경기도 성남시 복정동 664-8번지 복정초등학교 부근,2013-06,,1,127.1283336,"경기도 성남시 수정구 성남대로1480번길 25, 복정초등학교  부근(복정동)",37.4620006,교통단속,,2018-04-01,200,031-729-2482
경기도 성남시청,경기도 성남시 금토동 273-5 국지도23호금토동삼거리,2011-06,,1,127.0990635,"경기도 성남시 수정구 대왕판교로 775, 국지도 23호 (금토동)",37.4096779,교통단속,,2018-04-01,200,031-729-2482
경기도 성남시청,경기도 성남시 고등동 429-1 국지도23호고등동사무소앞,2011-06,,1,127.1015451,"경기도 성남시 수정구 대왕판교로 949, 국지도 23호 고등동사무소앞(고등동)",37.4250086,교통단속,,2018-04-01,200,031-729-2482
경기도 성남시청,경기도 성남시 성남동 4132,2014-12,,1,127.1281236,"경기도 성남시 중원구 산성대로 80, (성남동)",37.4330577,교통단속,,2018-04-01,200,031-729-2482
경기도 성남시청,경기도 성남시 분당구 백현동 566번지 신백현중앞 사거리(변경전 : 백현동 607-1번지),2011-06,,5,127.1102498,"경기도 성남시 분당구 판교역로50번길 19, 변경전:백현동 607동 1호 번지(백현동)",37.3859264,생활방범,,2018-04-01,200,031-729-2482
경기도 성남시청,경기도 성남시 중원구 중앙동 2070번지 돌다방 골목길,2009-05,,1,127.1554006,"경기도 성남시 중원구 광명로256번길 3-4, (중앙동)",37.4424974,생활방범,,2018-04-01,41,031-729-2482
경기도 성남시청,경기도 성남시 중원구 중앙동 2379번지,2013-10,,3,127.1543749,"경기도 성남시 중원구 광명로 246-11, (중앙동)",37.4418503,생활방범,,2018-04-01,200,031-729-2482
경기도 성남시청,경기도 성남시 중원구 중앙동 1797번지,2014-12,,1,127.1568545,"경기도 성남시 중원구 광명로256번길 25-1, (중앙동)",37.4410361,생활방범,,2018-04-01,200,031-729-2482
경기도 성남시청,경기도 성남시 중원구 중앙동 3274번지,2016-09,,3,127.148491,"경기도 성남시 중원구 광명로178번길 22-1, (중앙동)",37.437601,생활방범,,2018-04-01,200,031-729-2482
경기도 성남시청,경기도 성남시 중원구 중앙동 1322번지,2016-09,,3,127.146371,"경기도 성남시 중원구 광명로 169, (중앙동)",37.438931,생활방범,,2018-04-01,200,031-729-2482
경기도 성남시청,경기도 성남시 중원구 금광1동 1339번지,2008-06,,5,127.162497,"경기도 성남시 중원구 금빛로41번길 50, (금광동)",37.4443526,생활방범,,2018-04-01,41,031-729-2482
경기도 성남시청,경기도 성남시 중원구 금광1동 2381번지 하원초등학교 부근,2009-05,,1,127.1689808,"경기도 성남시 중원구 황송로13번길 9, 부근(금광동, 금광하이츠)",37.4465911,어린이보호,,2018-04-01,41,031-729-2482
경기도 성남시청,경기도 성남시 중원구 상대원3동 2661번지,2014-06,,5,127.1628501,"경기도 성남시 중원구 박석로85번길 27, (상대원동)",37.4385193,생활방범,,2018-04-01,200,031-729-2482
경기도 성남시청,경기도 성남시 수정구 수진2동 4247번지 풍생중학교담장길,2010-09,,3,127.1308419,"경기도 성남시 수정구 성남대로1180번길 19, 풍생중학교  (수진동)",37.4356535,생활방범,,2018-04-01,200,031-729-2482
경기도 성남시청,경기도 성남시 분당구 수내1동 8-8번지 편의점 앞,2012-10,,4,127.115357,"경기도 성남시 분당구 수내로46번길 26, 편의점앞  (수내동)",37.3795201,생활방범,,2018-04-01,200,031-729-2482
경기도 성남시청,경기도 성남시 수정구 신촌동 114-23번지 부근,2010-04,,5,127.1066961,"경기도 성남시 수정구 신촌로5번길 2, 부근  (신촌동)",37.459772,생활방범,,2018-04-01,41,031-729-2482
경기도 성남시청,경기도 성남시 분당구 수내3동 114-18번지 수내고길,2009-05,,5,127.1295666,"경기도 성남시 분당구 발이봉북로 29, (수내동)",37.3650167,생활방범,,2018-04-01,41,031-729-2482
경기도 성남시청,경기도 성남시 수정구 심곡동 434 군부대벽면 부근,2010-09,,1,127.1010234,"경기도 성남시 수정구 엄뫼골로21번길 4, 군부대벽면부근  (심곡동)",37.4440748,생활방범,,2018-04-01,41,031-729-2482
경기도 성남시청,경기도 성남시 수정구 신촌동 199-8번지,2016-09,,4,127.105301,"경기도 성남시 수정구 신촌로 18, (신촌동)",37.459701,생활방범,,2018-04-01,200,031-729-2482
경기도 성남시청,경기도 성남시 수정구 시흥동 84-8번지,2014-11,,3,127.105241,"경기도 성남시 수정구 설개로 2, (시흥동)",37.422061,생활방범,,2018-04-01,200,031-729-2482
경기도 성남시청,경기도 성남시 수정구 금토동 65-1번지,2010-09,,3,127.078071,"경기도 성남시 수정구 달래내로207번길 54, (금토동)",37.419491,생활방범,,2018-04-01,41,031-729-2482
경기도 성남시청,경기도 성남시 중원구 성남동 4163번지,2009-05,,1,127.1285073,"경기도 성남시 중원구 성남대로1147번길 3, (성남동)",37.4319915,생활방범,,2018-04-01,41,031-729-2482
경기도 성남시청,경기도 성남시 중원구 성남동 2670번지 중앙초등학교 뒤길,2009-05,,1,127.1440951,"경기도 성남시 중원구 광명로134번길 15-3, 중앙초등학교  (성남동)",37.4362837,어린이보호,,2018-04-01,41,031-729-2482
경기도 성남시청,경기도 성남시 중원구 성남동 2743번지,2009-05,,1,127.1447027,"경기도 성남시 중원구 광명로148번길 8-1, (성남동)",37.437356,생활방범,,2018-04-01,41,031-729-2482
경기도 성남시청,경기도 성남시 중원구 성남동 4309번지,2009-05,,1,127.1268092,"경기도 성남시 중원구 성남대로1151번길 19, (성남동)",37.4322027,생활방범,,2018-04-01,41,031-729-2482
경기도 성남시청,경기도 성남시 중원구 성남동 2566번지 나들이어린이놀이터,2009-05,,1,127.1420629,"경기도 성남시 중원구 원터로93번길 10, 나들이어린이놀이터  (성남동)",37.4349769,어린이보호,,2018-04-01,41,031-729-2482
경기도 성남시청,경기도 성남시 중원구 성남동 3469번지,2009-05,,1,127.1307562,"경기도 성남시 중원구 둔촌대로101번길 28-16, (성남동)",37.4320336,생활방범,,2018-04-01,41,031-729-2482
경기도 성남시청,경기도 성남시 중원구 성남동 4253번지 한진아파트 부근,2010-04,,3,127.1274024,,37.4312683,생활방범,,2018-04-01,41,031-729-2482
경기도 성남시청,경기도 성남시 중원구 상대원1동 153번지 중원초등학교 주변,2013-10,,3,127.1675464,"경기도 성남시 중원구 사기막골로31번길 46, 중원초등학교  주변(상대원동)",37.4382491,어린이보호,,2018-04-01,200,031-729-2482
경기도 성남시청,경기도 성남시 중원구 상대원1동 1496번지(미용실 앞),2013-10,,3,127.1643738,"경기도 성남시 중원구 둔촌대로425번길 33, 미용실앞  (상대원동)",37.4360514,생활방범,,2018-04-01,200,031-729-2482
경기도 성남시청,경기도 성남시 중원구 상대원1동 983번지 맞은편(공원쪽),2013-10,,3,127.1672338,"경기도 성남시 중원구 박석로42번길 13, 맞은편공원쪽  (상대원동)",37.4370961,생활방범,,2018-04-01,200,031-729-2482
경기도 성남시청,경기도 성남시 중원구 상대원1동 28번지 사기막골공원 입구주차장,2010-07,,1,127.1827496,,37.4458369,어린이보호,,2018-04-01,41,031-729-2482
경기도 성남시청,경기도 성남시 중원구 상대원1동 28번지 사기막골공원 놀이터,2010-07,,1,127.1827496,,37.4458369,어린이보호,,2018-04-01,41,031-729-2482
경기도 성남시청,경기도 성남시 중원구 상대원1동 28번지 사기막골공원 체험관(검지는 건물내부에 설치),2010-07,,2,127.1827496,,37.4458369,어린이보호,,2018-04-01,41,031-729-2482
경기도 성남시청,경기도 성남시 중원구 상대원1동 28번지 사기막골공원 물놀이장,2010-07,,1,127.1827496,,37.4458369,어린이보호,,2018-04-01,41,031-729-2482
경기도 성남시청,경기도 성남시 중원구 상대원1동 115-11번지(다솜어린이집),2014-11,,1,127.164372,,37.433277,어린이보호,,2018-04-01,200,031-729-2482
경기도 성남시청,경기도 성남시 분당구 백현동 569-4번지 보행자도로 사거리(변경전 : 백현동 609-11번지),2011-06,,1,127.1095284,"경기도 성남시 분당구 판교역로44번길 5-6, 변경전:백현동 609동 11호 사거리 번지(백현동)",37.3847873,생활방범,,2018-04-01,41,031-729-2482
경기도 성남시청,경기도 성남시 분당구 백현동 646-2번지 재너머삼거리 율곡초교 남측,2011-06,,2,127.091844,경기도 성남시 분당구 재너머삼거리,37.3801584,차량방범,,2018-04-01,41,031-729-2482
경기도 성남시청,"경기도 성남시 수정구 산성동 2117번지 성남북초등학교, 산성어린이집",2010-04,,1,127.1504559,"경기도 성남시 수정구 희망로534번길 3, 성남북초등학교  산성어린이집(산성동)",37.4528851,차량방범,,2018-04-01,140,031-729-2482
경기도 성남시청,경기도 성남시 중원구 은행1동 2290-1 세계유통 부근,2010-04,,5,127.1672736,"경기도 성남시 중원구 자혜로57번길 17, (은행동, 소망빌라)",37.4517934,생활방범,,2018-04-01,41,031-729-2482
경기도 성남시청,경기도 성남시 수정구 상적동 173-9번지,2014-12,,1,127.0727459,,37.4307238,생활방범,,2018-04-01,200,031-729-2482
경기도 성남시청,경기도 성남시 수정구 고등동 400-12번지,2016-02,,4,127.103221,,37.428931,생활방범,,2018-04-01,200,031-729-2482
경기도 성남시청,경기도 성남시 중원구 은행2동 1034번지 빛여울어린이놀이터,2011-12,,4,127.1676241,"경기도 성남시 중원구 은이로27번길 9, 빛여울어린이놀이터  (은행동)",37.4573143,어린이보호,,2018-04-01,130,031-729-2482
경기도 성남시청,경기도 성남시 중원구 은행2동 1932-6번지 선경유치원 주변,2013-10,,4,127.1635692,"경기도 성남시 중원구 자혜로17번길 16, (은행동, 현대)",37.451945,어린이보호,,2018-04-01,200,031-729-2482
경기도 성남시청,경기도 성남시 중원구 은행1동 2307-1번지,2013-10,,3,127.1666732,"경기도 성남시 중원구 자혜로57번길 13-11, (은행동, 동원빌라)",37.4520612,생활방범,,2018-04-01,200,031-729-2482
경기도 성남시청,경기도 성남시 중원구 은행1동 1973-1번지,2016-09,,3,127.169671,,37.452711,생활방범,,2018-04-01,200,031-729-2482
경기도 성남시청,경기도 성남시 중원구 은행1동 2410번지,2017-11,,5,127.166841,"경기도 성남시 중원구 자혜로67번길 4, (은행동, 대웅빌라)",37.451311,생활방범,,2018-04-01,200,031-729-2482
경기도 성남시청,경기도 성남시 중원구 은행2동 652 은행초등학교 후문,2010-04,,3,127.1702419,"경기도 성남시 중원구 순환로447번길 11, 은행초등학교  후문(은행동)",37.4609417,어린이보호,,2018-04-01,41,031-729-2482
경기도 성남시청,경기도 성남시 분당구 성남시 분당구 분당동 36번지 당촌초등학교 주변,2013-10,,3,127.131344,경기도 성남시 분당구 분당로 196,37.3736487,어린이보호,,2018-04-01,200,031-729-2482
경기도 성남시청,경기도 성남시 분당구 성남시 분당구 분당동 100-5번지,2013-10,,3,127.1438102,경기도 성남시 분당구 서현로421번길 6,37.3748675,생활방범,,2018-04-01,200,031-729-2482
경기도 성남시청,경기도 성남시 수정구 태평2동 3309번지 구시청 후문 부근,2010-04,,3,127.1392143,"경기도 성남시 수정구 수정로171번길 10, 구시청  후문 부근(태평동)",37.4447735,생활방범,,2018-04-01,41,031-729-2482
경기도 성남시청,경기도 성남시 수정구 태평2동 874번지 앞,2013-10,,3,127.1348849,,37.4486759,생활방범,,2018-04-01,200,031-729-2482
경기도 성남시청,경기도 성남시 수정구 태평2동 483번지,2015-02,,1,127.1358042,"경기도 성남시 수정구 태평로82번길 8-1, (태평동)",37.4494733,생활방범,,2018-04-01,200,031-729-2482
경기도 성남시청,경기도 성남시 수정구 태평2동 513번지 육거리,2015-10,,6,127.135061,"경기도 성남시 수정구 태평로78번길 8, (태평동, 영현맨션빌라)",37.449201,생활방범,,2018-04-01,200,031-729-2482
경기도 성남시청,경기도 성남시 중원구 상대원1동 895번지,2016-09,,4,127.167981,"경기도 성남시 중원구 박석로62번길 19, (상대원동)",37.439111,생활방범,,2018-04-01,200,031-729-2482
경기도 성남시청,경기도 성남시 중원구 상대원1동 1715번지,2016-09,,4,127.162721,"경기도 성남시 중원구 둔촌대로413번길 5, (상대원동)",37.433591,생활방범,,2018-04-01,200,031-729-2482
경기도 성남시청,경기도 성남시 중원구 상대원1동 279-7번지,2016-09,,3,127.169681,"경기도 성남시 중원구 금상로 132, (상대원동)",37.441831,생활방범,,2018-04-01,200,031-729-2482
경기도 성남시청,경기도 성남시 중원구 상대원1동 378-11번지,2017-11,,4,127.180371,"경기도 성남시 중원구 보통골로 14, (상대원동)",37.434791,생활방범,,2018-04-01,200,031-729-2482
경기도 성남시청,경기도 성남시 중원구 상대원1동 151-3번지,2017-11,,4,127.166841,"경기도 성남시 중원구 사기막골로9번길 32, (상대원동)",37.436171,생활방범,,2018-04-01,200,031-729-2482
경기도 성남시청,경기도 성남시 중원구 상대원1동 1940-11번지,2017-11,,5,127.160891,"경기도 성남시 중원구 박석로15번길 45, (상대원동)",37.434241,생활방범,,2018-04-01,200,031-729-2482
경기도 성남시청,경기도 성남시 중원구 상대원2동 4263 대원초등학교 부근(4251로표기),2010-04,,3,127.1543246,"경기도 성남시 중원구 희망로343번길 24, 대원초등학교 4251호 부근 로표기(상대원동)",37.436497,어린이보호,,2018-04-01,41,031-729-2482
경기도 성남시청,경기도 성남시 중원구 상대원2동 3385 대원경로당 부근,2010-04,,3,127.1549991,,37.4391809,생활방범,,2018-04-01,41,031-729-2482
경기도 성남시청,경기도 성남시 중원구 상대원2동 5004-1 게이트볼장입구,2010-04,,3,127.154486,,37.4354012,생활방범,,2018-04-01,41,031-729-2482
경기도 성남시청,경기도 성남시 중원구 상대원2동 3424 뽀빠이책방 부근,2010-04,,4,127.157484,"경기도 성남시 중원구 희망로367번길 7-1, 뽀빠이책방부근  (상대원동)",37.4385333,생활방범,,2018-04-01,41,031-729-2482
경기도 성남시청,경기도 성남시 중원구 상대원2동 2997-7 성신슈퍼 부근,2010-04,,3,127.1597964,"경기도 성남시 중원구 희망로380번길 12-9, (상대원동, 현대그린빌)",37.4385276,생활방범,,2018-04-01,41,031-729-2482
경기도 성남시청,경기도 성남시 분당구 수내3동 75번지,2014-12,,1,127.1243198,"경기도 성남시 분당구 수내로192번길 25, (수내동, 푸른마을쌍용아파트)",37.3691144,생활방범,,2018-04-01,200,031-729-2482
경기도 성남시청,경기도 성남시 분당구 수내3동 118-11번지,2015-11,,3,127.1246814,"경기도 성남시 분당구 발이봉북로35번길 16, (수내동)",37.3766914,생활방범,,2018-04-01,200,031-729-2482
경기도 성남시청,경기도 성남시 분당구 수내3동 127번지 푸른어린이공원 입구(벽산 203동 앞),2016-12,,4,127.125091,,37.368901,생활방범,,2018-04-01,200,031-729-2482
경기도 성남시청,경기도 성남시 분당구 수내3동 125-3 신해철거리,2017-12,,4,127.126971,경기도 성남시 분당구 신해철거리,37.365721,생활방범,,2018-04-01,200,031-729-2482
경기도 성남시청,경기도 성남시 분당구 정자동 52번지(성남생명숲어린이집),2009-05,,1,127.1152621,"경기도 성남시 분당구 내정로119번길 2, 성남생명숲어린이집  (정자동)",37.371051,생활방범,,2018-04-01,41,031-729-2482
경기도 성남시청,경기도 성남시 중원구 상대원2동 4251 대원초등학교 부근(4236앞),2010-04,,1,127.1550736,"경기도 성남시 중원구 희망로343번길 24, 대원초등학교 4236호 부근 앞(상대원동)",37.4369208,차량방범,,2018-04-01,140,031-729-2482
경기도 성남시청,경기도 성남시 신흥1동 5528,2006-08,,1,127.1386551,"경기도 성남시 수정구 수정로 168, (신흥동)",37.4426935,교통단속,,2018-04-01,200,031-729-2482
경기도 성남시청,경기도 성남시 신흥2동 139-3,2009-01,,1,127.1517016,"경기도 성남시 수정구 희망로 527, (신흥동)",37.4503369,교통단속,,2018-04-01,200,031-729-2482
경기도 성남시청,경기도 성남시 태평1동 6459,2009-11,,1,127.1287169,"경기도 성남시 수정구 수정로 75, (태평동)",37.4401697,교통단속,,2018-04-01,41,031-729-2482
경기도 성남시청,경기도 성남시 태평3동 3677,2006-08,,1,127.1335704,"경기도 성남시 수정구 수정로119번길 4, (태평동)",37.4416426,교통단속,,2018-04-01,200,031-729-2482
경기도 성남시청,경기도 성남시 태평3동 3743번지 태평초등학교 정문,2013-06,,1,127.1313747,"경기도 성남시 수정구 남문로32번길 7, 태평초등학교  정문(태평동)",37.4445802,교통단속,,2018-04-01,200,031-729-2482
경기도 성남시청,경기도 성남시 분당구 백현동 579-2번지 건너편 인도(변경전 : 백현동 607-1번지),2011-06,,1,127.1123095,"경기도 성남시 분당구 판교역로50번길 34, 건너편인도변경전 607동 1호 : 백현동 번지(백현동)",37.3851187,생활방범,,2018-04-01,200,031-729-2482
경기도 성남시청,경기도 성남시 분당구 판교동 509-10번지 E12-1블럭 보행자 도로 (체육공원 방향),2011-06,,1,127.0983704,경기도 성남시 분당구 보행자도로,37.4007377,생활방범,,2018-04-01,200,031-729-2482
경기도 성남시청,경기도 성남시 분당구 판교동 547번지 미르어린이공원 내부,2011-06,,1,127.0992552,,37.3950009,어린이보호,,2018-04-01,41,031-729-2482
경기도 성남시청,경기도 성남시 분당구 판교동 548-7번지 낙생초등학교 후문 앞,2011-06,,1,127.0999886,,37.3942981,어린이보호,,2018-04-01,200,031-729-2482
경기도 성남시청,경기도 성남시 수정구 태평2동 3307-51번지,2017-12,,5,127.138421,"경기도 성남시 수정구 시민로215번길 23, (태평동)",37.446261,생활방범,,2018-04-01,200,031-729-2482
경기도 성남시청,경기도 성남시 중원구 은행2동 1575번지,2016-09,,4,127.163891,,37.456831,생활방범,,2018-04-01,200,031-729-2482
경기도 성남시청,경기도 성남시 중원구 은행2동 550-6번지(주공아파트 입구쪽),2016-09,,4,127.171511,"경기도 성남시 중원구 산성대로552번길 15, 입구쪽(은행동, 은행주공2차아파트)",37.457741,생활방범,,2018-04-01,200,031-729-2482
경기도 성남시청,경기도 성남시 수정구 태평3동 4761번지 꽃가람 어린이놀이터(이화유치원 앞),2010-04,,3,127.132204,,37.4480424,어린이보호,,2018-04-01,41,031-729-2482
경기도 성남시청,경기도 성남시 수정구 태평3동 3743번지 태평초등학교 후문,2010-04,,3,127.1313646,"경기도 성남시 수정구 남문로32번길 7, 태평초등학교  후문(태평동)",37.4446438,어린이보호,,2018-04-01,41,031-729-2482
경기도 성남시청,경기도 성남시 분당구 성남시 분당구 분당동 39번지(샛별유치원),2014-11,,1,127.1292462,경기도 성남시 분당구 수내로 201,37.3707694,어린이보호,,2018-04-01,200,031-729-2482
경기도 성남시청,경기도 성남시 분당구 성남시 분당구 분당동 156번지(분당어린이집),2014-11,,1,127.1432364,경기도 성남시 분당구 장안로26번길 12,37.368584,어린이보호,,2018-04-01,200,031-729-2482
경기도 성남시청,경기도 성남시 분당구 성남시 분당구 분당동 153-15번지,2016-07,,3,127.143041,경기도 성남시 분당구 분당로327번길 12,37.367101,생활방범,,2018-04-01,200,031-729-2482
경기도 성남시청,경기도 성남시 분당구 구미1동 63번지(꿈터유치원),2014-11,,1,127.1000628,"경기도 성남시 분당구 미금일로 58, 꿈터유치원  (구미동)",37.3442992,어린이보호,,2018-04-01,200,031-729-2482
경기도 성남시청,경기도 성남시 분당구 구미1동 21-3 미금지하보도(금성 백조빌라 206동앞),2015-10,,2,127.1092283,,37.3467294,생활방범,,2018-04-01,200,031-729-2482
경기도 성남시청,경기도 성남시 분당구 구미1동 22번지 가구전시장 앞 사거리,2010-09,,2,127.1095582,"경기도 성남시 분당구 미금일로90번길 23, 가구전시장  (구미동)",37.348099,생활방범,,2018-04-01,200,031-729-2482
경기도 성남시청,경기도 성남시 분당구 구미1동 59-5번지,2017-12,,4,127.110931,,37.346161,생활방범,,2018-04-01,200,031-729-2482
경기도 성남시청,경기도 성남시 분당구 구미1동 19번지(머내공원 배드민턴장),2017-12,,4,127.105741,,37.349491,생활방범,,2018-04-01,200,031-729-2482
경기도 성남시청,경기도 성남시 분당구 정자동 91-1번지 느티마을어린이공원(분당50호),2009-05,,1,127.1117901,,37.3662785,어린이보호,,2018-04-01,41,031-729-2482
경기도 성남시청,경기도 성남시 분당구 정자동 72번지 백현어린이공원(분당51호),2009-05,,1,127.1123521,"경기도 성남시 분당구 황새울로116번길 19-8, 백현어린이공원분당 51호 (정자동)",37.3711901,어린이보호,,2018-04-01,200,031-729-2482
경기도 성남시청,경기도 성남시 분당구 정자동 76번지 백현초등학교· 백현중학교 사이길,2009-05,,1,127.1113789,"경기도 성남시 분당구 백현로144번길 26, 백현초등학교  · 백현중학교(정자동)",37.3720645,어린이보호,,2018-04-01,41,031-729-2482
경기도 성남시청,경기도 성남시 분당구 정자동 100-3번지 주변 상록지하보도,2012-10,,4,127.1092528,,37.3688416,생활방범,,2018-04-01,200,031-729-2482
경기도 성남시청,경기도 성남시 분당구 정자동 56-7번지,2013-03,,2,127.1137777,"경기도 성남시 분당구 내정로113번길 12, (정자동)",37.3708031,생활방범,,2018-04-01,200,031-729-2482
경기도 성남시청,경기도 성남시 분당구 정자동 183-1번지 금곡공원,2013-10,,4,127.1100689,"경기도 성남시 분당구 금곡로 298, 금곡공원  (정자동)",37.3570241,어린이보호,,2018-04-01,200,031-729-2482
경기도 성남시청,경기도 성남시 분당구 정자동 136번지 앞,2013-10,,3,127.1130157,,37.361542,생활방범,,2018-04-01,200,031-729-2482
경기도 성남시청,경기도 성남시 분당구 정자동 90 느티마을 401동 입구,2014-12,,1,127.1135594,"경기도 성남시 분당구 느티로 70, 401동  입구(정자동, 느티마을주공공무원4단지)",37.367361,생활방범,,2018-04-01,200,031-729-2482
경기도 성남시청,경기도 성남시 분당구 정자동 65-3번지(안촌유치원),2014-11,,1,127.1122156,"경기도 성남시 분당구 느티로 70, 안촌유치원  (정자동)",37.3687945,어린이보호,,2018-04-01,200,031-729-2482
경기도 성남시청,경기도 성남시 분당구 정자동 36-9번지,2017-12,,4,127.111891,"경기도 성남시 분당구 황새울로132번길 16-7, (정자동)",37.372221,생활방범,,2018-04-01,200,031-729-2482
경기도 성남시청,경기도 성남시 분당구 정자동 76번지 백현초등학교,2015-10,,1,127.1246814,"경기도 성남시 분당구 백현로144번길 26, 백현초등학교  (정자동)",37.3766914,어린이보호,,2018-04-01,200,031-729-2482
경기도 성남시청,경기도 성남시 분당구 정자동 60번지,2015-11,,4,127.1246814,"경기도 성남시 분당구 내정로107번길 2, (정자동)",37.3766914,생활방범,,2018-04-01,200,031-729-2482
경기도 성남시청,경기도 성남시 수정구 태평4동 7307번지 선경아파트 놀이터 부근,2010-04,,5,127.142318,"경기도 성남시 수정구 남문로136번길 15, 놀이터 부근(태평동, 선경태평아파트)",37.4469326,생활방범,,2018-04-01,41,031-729-2482
경기도 성남시청,경기도 성남시 분당구 정자동 145번지 봉우재어린이공원(분당52호),2009-05,,1,127.1125177,"경기도 성남시 분당구 내정로7번길 18, 봉우재어린이공원분당 52호 (정자동)",37.3611857,어린이보호,,2018-04-01,41,031-729-2482
경기도 성남시청,경기도 성남시 수정구 태평4동 45번지 현충탑 부근,2010-04,,2,127.1404154,"경기도 성남시 수정구 태평로 126-1, 현충탑부근  (태평동)",37.4514426,생활방범,,2018-04-01,41,031-729-2482
경기도 성남시청,경기도 성남시 수정구 태평4동 산52-1번지 영장공원 물놀이장,2011-12,,3,127.1366739,,37.4511221,어린이보호,,2018-04-01,130,031-729-2482
경기도 성남시청,경기도 성남시 분당구 판교동 579-6번지 E10-1블럭 내 운중로 앞 보행자 출입로변,2011-06,,1,127.0996305,경기도 성남시 분당구 내운중로,37.3886981,생활방범,,2018-04-01,41,031-729-2482
경기도 성남시청,경기도 성남시 분당구 판교동 638-2번지 원마을 6단지 뒷편 소도로변 삼거리,2011-06,,1,127.0919811,"경기도 성남시 분당구 판교원로 209, (판교동, 판교원마을진원제비앙아파트)",37.3863057,생활방범,,2018-04-01,200,031-729-2482
경기도 성남시청,경기도 성남시 분당구 판교동 492-2번지 판교 원마을 13단지 앞 경부고속도로 방향,2011-06,,1,127.0932185,"경기도 성남시 분당구 서판교로 193, 판교   방향(판교동, 판교원마을13단지)",37.4018562,생활방범,,2018-04-01,41,031-729-2482
경기도 성남시청,경기도 성남시 분당구 판교동 500번지 판교 원마을 12단지 뒤편 근린공원(산책로) 입구,2011-06,,1,127.0949281,"경기도 성남시 분당구 서판교로 165, 판교   입구(판교동, 판교원마을휴먼시아아파트)",37.4022329,생활방범,,2018-04-01,200,031-729-2482
경기도 성남시청,경기도 성남시 분당구 판교동 500번지 판교공원 내 체육시설 입구,2011-06,,1,127.0949281,"경기도 성남시 분당구 서판교로180번길 18-2, 판교공원내체육시설입구  (판교동)",37.4022329,어린이보호,,2018-04-01,200,031-729-2482
경기도 성남시청,경기도 성남시 분당구 판교동 500번지 판교 도서관 뒤 휴계시설 내,2011-06,,1,127.0949281,"경기도 성남시 분당구 서판교로180번길 18-2, 판교도서관뒤휴계시설내  (판교동)",37.4022329,생활방범,,2018-04-01,41,031-729-2482
경기도 성남시청,경기도 성남시 분당구 판교동 500번지 판교 홍보관 뒤 산책로 입구,2011-06,,1,127.0949281,"경기도 성남시 분당구 서판교로180번길 18-2, 판교  입구(판교동)",37.4022329,생활방범,,2018-04-01,41,031-729-2482
경기도 성남시청,경기도 성남시 분당구 판교동 628-1번지 원마을 6단지 운중천 산책로 입구,2011-06,,1,127.090741,"경기도 성남시 분당구 판교원로 209, 입구(판교동, 판교원마을진원제비앙아파트)",37.3887861,생활방범,,2018-04-01,41,031-729-2482
경기도 성남시청,경기도 성남시 분당구 판교동 584-1번지 피크닉공원 입구 삼거리(대로변),2011-06,,1,127.0932663,경기도 성남시 분당구 삼거리,37.3888509,생활방범,,2018-04-01,200,031-729-2482
경기도 성남시청,경기도 성남시 분당구 판교동 500번지 판교 원마을 11단지 뒷편 체육공원 내,2011-06,,1,127.0949281,"경기도 성남시 분당구 서판교로 147, 판교  뒷편 체육공원 내(판교동, 판교원마을현대힐스테이트아파트)",37.4022329,생활방범,,2018-04-01,41,031-729-2482
경기도 성남시청,경기도 성남시 분당구 판교동 559-7번지 E11-1블럭 내 서판교 차량 출입구 앞 (지하차도 진입구),2011-06,,1,127.1003456,,37.3927409,생활방범,,2018-04-01,41,031-729-2482
경기도 성남시청,경기도 성남시 분당구 판교동 614-13번지 판교원마을 1단지(108동) 옆 판교공원 입구,2011-06,,4,127.0893925,"경기도 성남시 분당구 판교로 50, 108동  옆 판교공원 입구(판교동, 판교원마을주공휴먼시아1단지)",37.3917092,생활방범,,2018-04-01,41,031-729-2482
경기도 성남시청,경기도 성남시 분당구 판교동 611-5번지 F7-1블럭 주택지역 외곽도로변 판교 홍보관 옆(산책로 입구),2011-06,,1,127.0925365,,37.3910591,생활방범,,2018-04-01,41,031-729-2482
경기도 성남시청,경기도 성남시 수정구 단대동 192번지 성남혜은학교 정문,2010-04,,4,127.1539852,"경기도 성남시 수정구 희망로518번길 8, 성남혜은학교  정문(단대동)",37.4500766,어린이보호,,2018-04-01,41,031-729-2482
경기도 성남시청,경기도 성남시 분당구 서현1동 89-4번지(서현어린이집),2014-11,,4,127.1260124,"경기도 성남시 분당구 중앙공원로31번길 32, 서현어린이집  (서현동)",37.3824028,어린이보호,,2018-04-01,200,031-729-2482
경기도 성남시청,경기도 성남시 분당구 율동 270-2,2015-11,,3,127.1246814,"경기도 성남시 분당구 새마을로165번길 29, (율동)",37.3766914,생활방범,,2018-04-01,200,031-729-2482
경기도 성남시청,경기도 성남시 분당구 서현1동 234(서현도서관),2017-09,,4,127.131891,"경기도 성남시 분당구 중앙공원로 77, 서현도서관  (서현동)",37.383891,생활방범,,2018-04-01,200,031-729-2482
경기도 성남시청,경기도 성남시 분당구 서현2동 343-5번지 부근,2010-04,,2,127.1392265,,37.3769901,생활방범,,2018-04-01,41,031-729-2482
경기도 성남시청,경기도 성남시 수정구 태평4동 7317-17 맞은편,2012-10,,4,127.1414263,"경기도 성남시 수정구 시민로205번길 1, 맞은편  (태평동)",37.4460852,생활방범,,2018-04-01,200,031-729-2482
경기도 성남시청,경기도 성남시 수정구 태평4동 1680번지,2013-03,,2,127.1397076,"경기도 성남시 수정구 시민로249번길 1, (태평동)",37.4498216,생활방범,,2018-04-01,200,031-729-2482
경기도 성남시청,경기도 성남시 수정구 태평4동 7335-8번지 다래유치원(사랑하는 유치원) 주변,2013-10,,5,127.1404573,"경기도 성남시 수정구 수정북로 101, 다래유치원사랑하는유치원주변  (태평동)",37.4444748,어린이보호,,2018-04-01,200,031-729-2482
경기도 성남시청,경기도 성남시 수정구 태평4동 106번지 양지유치원 주변,2013-10,,4,127.1401215,"경기도 성남시 수정구 태평로124번길 8, 양지유치원주변  (태평동)",37.4508189,어린이보호,,2018-04-01,200,031-729-2482
경기도 성남시청,경기도 성남시 수정구 태평4동 1759번지 사거리,2013-10,,3,127.1401331,"경기도 성남시 수정구 남문로131번길 23, (태평동)",37.4500626,생활방범,,2018-04-01,200,031-729-2482
경기도 성남시청,경기도 성남시 수정구 태평4동 7362번지(성남초등학교),2014-11,,1,127.141431,"경기도 성남시 수정구 수정로 233, 성남초등학교  (태평동)",37.447942,어린이보호,,2018-04-01,200,031-729-2482
경기도 성남시청,경기도 성남시 수정구 태평4동 7298-8번지(아이리라어린이집),2014-11,,3,127.1430477,"경기도 성남시 수정구 공원로 427, (태평동, 성경빌라)",37.4482399,어린이보호,,2018-04-01,200,031-729-2482
경기도 성남시청,경기도 성남시 수정구 태평4동 7319-16번지 금빛 어린이놀이터,2011-11,,2,127.1423667,,37.4461176,어린이보호,,2018-04-01,130,031-729-2482
경기도 성남시청,경기도 성남시 수정구 태평4동 2338번지,2015-10,,5,127.140321,"경기도 성남시 수정구 시민로 234, (태평동)",37.448631,생활방범,,2018-04-01,200,031-729-2482
경기도 성남시청,경기도 성남시 분당구 판교동 560-9번지 판교동주민센터 뒷편 삼거리(해나유치원),2011-06,,1,127.0997603,경기도 성남시 분당구 뒷편삼거리,37.3917093,생활방범,,2018-04-01,200,031-729-2482
경기도 성남시청,경기도 성남시 분당구 판교동 557-8번지 E11-1블럭 서판교 진출입로 입구 (보행자 출입로 사거리),2011-06,,1,127.0995171,경기도 성남시 분당구 진출입로,37.3931025,생활방범,,2018-04-01,200,031-729-2482
경기도 성남시청,경기도 성남시 분당구 판교동 551번지(낙생초등학교),2014-11,,1,127.0990564,"경기도 성남시 분당구 서판교로74번길 11, 낙생초등학교  (판교동)",37.3940781,어린이보호,,2018-04-01,200,031-729-2482
경기도 성남시청,경기도 성남시 분당구 판교동 438번지(판교초등학교),2014-11,,1,127.0917287,,37.3869707,어린이보호,,2018-04-01,200,031-729-2482
경기도 성남시청,경기도 성남시 분당구 판교동 487 바람개비어린이공원,2014-11,,4,127.094847,,37.402572,어린이보호,,2018-04-01,200,031-729-2482
경기도 성남시청,경기도 성남시 분당구 판교동 596번지,2016-09,,4,127.090811,"경기도 성남시 분당구 운중로257번길 7-9, (판교동)",37.390141,생활방범,,2018-04-01,200,031-729-2482
경기도 성남시청,경기도 성남시 분당구 삼평동 727-1번지 이황초등학교 / 삼평중학교 사이 대로변,2011-06,,3,127.1166565,,37.4006228,생활방범,,2018-04-01,200,031-729-2482
경기도 성남시청,경기도 성남시 분당구 판교동 583-2번지,2017-12,,3,127.101691,,37.389481,생활방범,,2018-04-01,200,031-729-2482
경기도 성남시청,경기도 성남시 분당구 삼평동 699번지 달팽이어린이공원 내부,2011-06,,1,127.1080157,,37.4043991,어린이보호,,2018-04-01,41,031-729-2482
경기도 성남시청,경기도 성남시 분당구 삼평동 677번지 어울어린이공원 내부,2011-06,,1,127.1113797,,37.401691,어린이보호,,2018-04-01,41,031-729-2482
경기도 성남시청,경기도 성남시 분당구 삼평동 697번지 삼성테크윈 뒷편 봇들공원 내부,2011-06,,1,127.1072935,,37.4058385,어린이보호,,2018-04-01,41,031-729-2482
경기도 성남시청,경기도 성남시 분당구 삼평동 646-1번지 키움건설 앞 인도변,2011-06,,1,127.1103296,,37.3970251,생활방범,,2018-04-01,200,031-729-2482
경기도 성남시청,경기도 성남시 분당구 서현2동 302번지 서당어린이공원(분당34호) 서당초등학교 주변,2010-04,,3,127.1345082,"경기도 성남시 분당구 돌마로476번길 30, 서당초등학교 34호 서당어린이공원 분당 주변(서현동)",37.3752216,어린이보호,,2018-04-01,41,031-729-2482
경기도 성남시청,경기도 성남시 분당구 서현2동 303번지 서당초등학교 주변,2013-10,,3,127.1347477,"경기도 성남시 분당구 돌마로476번길 30, 서당초등학교  주변(서현동)",37.3745797,어린이보호,,2018-04-01,200,031-729-2482
경기도 성남시청,경기도 성남시 분당구 서현동 294 효자어린이공원,2014-11,,4,127.1350486,,37.3760667,어린이보호,,2018-04-01,200,031-729-2482
경기도 성남시청,경기도 성남시 중원구 금광1동 1632번지 금상초등학교 부근,2009-05,,1,127.1651805,"경기도 성남시 중원구 금상로 97, 금상초등학교  부근(금광동)",37.4437789,어린이보호,,2018-04-01,41,031-729-2482
경기도 성남시청,경기도 성남시 분당구 이매1동 275번지 부근,2010-04,,3,127.1333877,"경기도 성남시 분당구 이매로89번길 37, (이매동, 골든빌)",37.3946109,생활방범,,2018-04-01,41,031-729-2482
경기도 성남시청,경기도 성남시 분당구 이매1동 86-6번지 부근,2010-04,,3,127.1300012,"경기도 성남시 분당구 성남대로772번길 9, 부근  (이매동)",37.3984117,생활방범,,2018-04-01,41,031-729-2482
경기도 성남시청,경기도 성남시 분당구 이매1동 103번지 과수원어린이공원(분당20호),2011-12,,2,127.125995,,37.4023984,어린이보호,,2018-04-01,130,031-729-2482
경기도 성남시청,경기도 성남시 분당구 서현2동 308번지 세화유치원 주변,2013-10,,5,127.1361524,"경기도 성남시 분당구 불정로 362, 세화유치원주변  (서현동)",37.3725245,어린이보호,,2018-04-01,200,031-729-2482
경기도 성남시청,경기도 성남시 분당구 이매1동 125번지 누엣길어린이공원,2013-10,,4,127.1256345,,37.3899039,어린이보호,,2018-04-01,200,031-729-2482
경기도 성남시청,경기도 성남시 분당구 이매1동 59-6번지,2014-12,,1,127.134378,"경기도 성남시 분당구 방아로46번길 37, (이매동)",37.3956875,생활방범,,2018-04-01,200,031-729-2482
경기도 성남시청,경기도 성남시 분당구 이매1동 128-18번지 이매지하보도(청구아파트 608동 맞은편),2015-10,,2,127.1271242,"경기도 성남시 분당구 양현로94번길 29, 608동 지하층  이매보도  맞은편(이매동, 이매촌청구6단지)",37.3995681,생활방범,,2018-04-01,200,031-729-2482
경기도 성남시청,경기도 성남시 분당구 이매1동 128-10(자원봉사센터 삼거리),2017-09,,4,127.128811,경기도 성남시 분당구 삼거리,37.397531,생활방범,,2018-04-01,200,031-729-2482
경기도 성남시청,경기도 성남시 중원구 하대원동 148-17번지 앞 (도매시장내),2013-10,,3,127.1426945,"경기도 성남시 중원구 마지로 119, 앞도매시장  내(하대원동)",37.4275123,생활방범,,2018-04-01,200,031-729-2482
경기도 성남시청,경기도 성남시 수정구 태평4동 7292번지(성남어린이집),2015-10,,1,127.141261,,37.447651,어린이보호,,2018-04-01,200,031-729-2482
경기도 성남시청,경기도 성남시 수정구 태평4동 1564번지,2016-06,,5,127.138941,"경기도 성남시 수정구 시민로249번길 7-1, (태평동)",37.449601,생활방범,,2018-04-01,200,031-729-2482
경기도 성남시청,경기도 성남시 수정구 태평4동 7306번지,2017-12,,5,127.142591,"경기도 성남시 수정구 남문로140번길 19, (태평동, 선경태평아파트)",37.446751,생활방범,,2018-04-01,200,031-729-2482
경기도 성남시청,경기도 성남시 수정구 태평4동 2281번지,2017-12,,5,127.140721,"경기도 성남시 수정구 남문로131번길 10, (태평동)",37.448911,생활방범,,2018-04-01,200,031-729-2482
경기도 성남시청,경기도 성남시 수정구 태평4동 1916번지,2017-12,,5,127.140771,"경기도 성남시 수정구 태평로128번길 9, (태평동)",37.450811,생활방범,,2018-04-01,200,031-729-2482
경기도 성남시청,경기도 성남시 수정구 태평4동 7311-9번지,2017-12,,5,127.140381,"경기도 성남시 수정구 시민로205번길 12-2, (태평동)",37.445881,생활방범,,2018-04-01,200,031-729-2482
경기도 성남시청,경기도 성남시 수정구 수진1동 2317번지 노상주차장 부근,2009-05,,5,127.1386306,,37.4374918,생활방범,,2018-04-01,41,031-729-2482
경기도 성남시청,경기도 성남시 수정구 수진1동 2664번지 해오름 어린이놀이터,2010-04,,2,127.1368048,,37.4360267,어린이보호,,2018-04-01,41,031-729-2482
경기도 성남시청,경기도 성남시 중원구 성남동 3998번지,2012-10,,4,127.1334695,"경기도 성남시 중원구 둔촌대로151번길 22, (성남동, 신흥다세대)",37.429732,생활방범,,2018-04-01,200,031-729-2482
경기도 성남시청,경기도 성남시 중원구 성남동 2894번지 예원유치원 주변,2013-10,,5,127.1431103,"경기도 성남시 중원구 원터로93번길 3, 예원유치원주변  (성남동)",37.4350202,어린이보호,,2018-04-01,200,031-729-2482
경기도 성남시청,경기도 성남시 중원구 성남동 3775번지,2013-10,,3,127.1357452,"경기도 성남시 중원구 제일로35번길 10-1, (성남동)",37.4306183,생활방범,,2018-04-01,200,031-729-2482
경기도 성남시청,경기도 성남시 중원구 성남동 3552번지,2013-10,,3,127.132121,"경기도 성남시 중원구 제일로35번길 43-2, (성남동)",37.4318805,생활방범,,2018-04-01,200,031-729-2482
경기도 성남시청,경기도 성남시 중원구 성남동 4449번지,2013-10,,3,127.1267373,"경기도 성남시 중원구 둔촌대로69번길 5, (성남동)",37.4305252,생활방범,,2018-04-01,200,031-729-2482
경기도 성남시청,경기도 성남시 중원구 성남동 4122번지 주차장 입구,2014-06,,5,127.129874,"경기도 성남시 중원구 성남대로 1128, 주차장입구  (성남동)",37.4305372,생활방범,,2018-04-01,200,031-729-2482
경기도 성남시청,경기도 성남시 중원구 성남동 2066번지,2014-12,,1,127.1432294,"경기도 성남시 중원구 산성대로 228, (성남동)",37.438459,생활방범,,2018-04-01,200,031-729-2482
경기도 성남시청,경기도 성남시 중원구 성남동 2580번지(중앙초등학교),2014-11,,4,127.1432974,"경기도 성남시 중원구 원터로94번길 7, 중앙초등학교  (성남동)",37.4359595,어린이보호,,2018-04-01,200,031-729-2482
경기도 성남시청,경기도 성남시 중원구 성남동 1505번지 모란역 1번출구 자전거횡단보도,2014-05,,2,127.129173,,37.433325,생활방범,,2018-04-01,200,031-729-2482
경기도 성남시청,경기도 성남시 분당구 삼평동 717-2번지 송현공원 내부 게이트볼장 앞,2011-06,,1,127.1169442,,37.4084987,어린이보호,,2018-04-01,41,031-729-2482
경기도 성남시청,경기도 성남시 분당구 삼평동 710-3번지 송현초등학교 후문 입구,2011-06,,1,127.1161658,,37.4058475,어린이보호,,2018-04-01,200,031-729-2482
경기도 성남시청,경기도 성남시 분당구 삼평동 721-1번지 봇들마을 3단지 주출입구 앞,2011-06,,1,127.1158894,"경기도 성남시 분당구 동판교로 225, 주출입구 앞(삼평동, 봇들마을3단지주공뜨란채아파트)",37.4035678,생활방범,,2018-04-01,200,031-729-2482
경기도 성남시청,경기도 성남시 분당구 성남시 분당구 이매2동 119번지 구렛들어린이공원(분당25호),2011-12,,3,127.1250614,,37.3922686,어린이보호,,2018-04-01,130,031-729-2482
경기도 성남시청,경기도 성남시 분당구 야탑1동 394-4번지 야탑초등학교 입구,2010-04,,3,127.1266073,"경기도 성남시 분당구 양현로 400, 야탑초등학교  입구(야탑동)",37.4157618,어린이보호,,2018-04-01,41,031-729-2482
경기도 성남시청,경기도 성남시 분당구 야탑1동 381-14번지 부근,2010-04,,3,127.1335223,"경기도 성남시 분당구 매화로55번길 6-4, 부근  (야탑동)",37.4127311,생활방범,,2018-04-01,41,031-729-2482
경기도 성남시청,경기도 성남시 분당구 야탑1동 337번지 하늘어린이공원,2013-10,,4,127.1307366,,37.4147892,어린이보호,,2018-04-01,200,031-729-2482
경기도 성남시청,경기도 성남시 분당구 야탑1동 333번지(야탑초등학교),2014-11,,5,127.1259045,"경기도 성남시 분당구 양현로 400, 야탑초등학교  (야탑동)",37.4162652,어린이보호,,2018-04-01,200,031-729-2482
경기도 성남시청,경기도 성남시 분당구 야탑1동 332(꿈동산어린이공원),2017-09,,4,127.125471,,37.414331,생활방범,,2018-04-01,200,031-729-2482
경기도 성남시청,경기도 성남시 분당구 야탑1동 378-1번지,2017-12,,4,127.132051,"경기도 성남시 분당구 장미로 102, (야탑동)",37.413571,생활방범,,2018-04-01,200,031-729-2482
경기도 성남시청,경기도 성남시 분당구 서현1동 198-1번지,2013-10,,3,127.1334912,"경기도 성남시 분당구 안골로 12-4, (서현동)",37.3842804,생활방범,,2018-04-01,200,031-729-2482
경기도 성남시청,경기도 성남시 분당구 성남시 분당구 야탑2동 516번지 장승백이어린이공원(분당14호),2012-10,,4,127.131019,,37.4094905,어린이보호,,2018-04-01,200,031-729-2482
경기도 성남시청,경기도 성남시 분당구 성남시 분당구 야탑2동 531번지 하탑초등학교 주변,2013-10,,3,127.1261632,경기도 성남시 분당구 양현로 262,37.4071577,어린이보호,,2018-04-01,200,031-729-2482
경기도 성남시청,경기도 성남시 분당구 야탑1동 368-17번지 앞,2013-10,,3,127.1315243,"경기도 성남시 분당구 야탑로111번길 12, (야탑동)",37.4107267,생활방범,,2018-04-01,200,031-729-2482
경기도 성남시청,경기도 성남시 분당구 성남시 분당구 야탑2동 536번지 탑마을지하보도(105동 늘사랑어린이집 앞),2015-10,,2,127.1212913,경기도 성남시 분당구 야탑로 20,37.4076944,생활방범,,2018-04-01,200,031-729-2482
경기도 성남시청,경기도 성남시 분당구 야탑3동 161번지 상탑초등학교 정문,2012-05,,2,127.1456792,"경기도 성남시 분당구 판교로 647, 상탑초등학교  정문(야탑동)",37.4061599,어린이보호,,2018-04-01,130,031-729-2482
경기도 성남시청,경기도 성남시 분당구 야탑3동 155-5번지,2012-10,,3,127.1557834,"경기도 성남시 분당구 새나리로6번길 15, (야탑동)",37.4039757,생활방범,,2018-04-01,200,031-729-2482
경기도 성남시청,경기도 성남시 중원구 성남동 4130번지 모란역 8번출구 자전거횡단보도,2014-05,,2,127.1287545,"경기도 성남시 중원구 성남대로 1157, 출구자전거횡단보도 8호 모란역 번(성남동)",37.4332611,생활방범,,2018-04-01,200,031-729-2482
경기도 성남시청,경기도 성남시 중원구 성남동 3129번지 중원지하보도(중원구청 민원실앞),2010-11,,2,127.118925,"경기도 성남시 중원구 제일로 36, 중원구청 지하층  중원보도  민원실앞(성남동)",37.382821,생활방범,,2018-04-01,200,031-729-2482
경기도 성남시청,경기도 성남시 중원구 성남동 2708번지,2016-12,,5,127.144611,"경기도 성남시 중원구 광명로142번길 13-1, (성남동)",37.436501,생활방범,,2018-04-01,200,031-729-2482
경기도 성남시청,경기도 성남시 중원구 성남동 4116-6번지,2016-09,,3,127.130991,"경기도 성남시 중원구 둔촌대로151번길 44, 107동  (성남동, 삼성슈퍼빌)",37.429841,생활방범,,2018-04-01,200,031-729-2482
경기도 성남시청,경기도 성남시 중원구 성남동 2690번지 전봇대 설치,2016-12,,2,127.145201,"경기도 성남시 중원구 광명로142번길 23, 전봇대설치  (성남동)",37.436551,생활방범,,2018-04-01,200,031-729-2482
경기도 성남시청,경기도 성남시 중원구 중앙동 2570번지 제1경노당 앞 공원어린이놀이터,2009-05,,1,127.1521273,"경기도 성남시 중원구 광명로 226-13, 1호 경노당 앞 공원어린이놀이터(중앙동)",37.4406729,생활방범,,2018-04-01,41,031-729-2482
경기도 성남시청,경기도 성남시 중원구 중앙동 1705번지 세종빌라 건너편 계단입구,2009-05,,1,127.1583461,"경기도 성남시 중원구 광명로256번길 47, 건너편 계단입구(중앙동, 세종빌라)",37.4405511,생활방범,,2018-04-01,41,031-729-2482
경기도 성남시청,경기도 성남시 중원구 상대원2동 4759 부근,2010-04,,3,127.1579843,"경기도 성남시 중원구 희망로 327, 부근  (상대원동)",37.4350947,생활방범,,2018-04-01,41,031-729-2482
경기도 성남시청,경기도 성남시 중원구 상대원2동 3393번지 꽃마을어린이놀이터,2011-12,,3,127.1546002,"경기도 성남시 중원구 희망로367번길 38, 꽃마을어린이놀이터아파트  (상대원동)",37.4387332,어린이보호,,2018-04-01,130,031-729-2482
경기도 성남시청,경기도 성남시 중원구 상대원2동 5288번지,2013-03,,2,127.1573061,"경기도 성남시 중원구 희망로317번길 13-2, (상대원동)",37.4342593,생활방범,,2018-04-01,200,031-729-2482
경기도 성남시청,경기도 성남시 중원구 상대원2동 5158번지(석유집 앞),2013-10,,3,127.1563595,"경기도 성남시 중원구 희망로327번길 17, 석유집앞  (상대원동)",37.4349723,생활방범,,2018-04-01,200,031-729-2482
경기도 성남시청,경기도 성남시 중원구 상대원2동 4735번지(노상주차장 쪽),2013-10,,3,127.1529473,"경기도 성남시 중원구 희망로335번길 50-13, 노상주차장쪽  (상대원동)",37.4368018,생활방범,,2018-04-01,200,031-729-2482
경기도 성남시청,경기도 성남시 중원구 상대원2동 3105번지,2014-12,,1,127.1571739,,37.4397865,생활방범,,2018-04-01,200,031-729-2482
경기도 성남시청,경기도 성남시 중원구 상대원2동 4251번지(대원초등학교),2014-11,,1,127.1554355,"경기도 성남시 중원구 희망로343번길 24, 대원초등학교  (상대원동)",37.436872,어린이보호,,2018-04-01,200,031-729-2482
경기도 성남시청,경기도 성남시 중원구 상대원2동 4886번지,2016-09,,2,127.156001,"경기도 성남시 중원구 희망로327번길 20-8, (상대원동)",37.435401,생활방범,,2018-04-01,200,031-729-2482
경기도 성남시청,경기도 성남시 분당구 야탑3동 178번지 양촌어린이공원,2013-10,,3,127.1470455,,37.407082,어린이보호,,2018-04-01,200,031-729-2482
경기도 성남시청,경기도 성남시 분당구 야탑3동 183번지 (빌라 602동 앞 도로상),2013-10,,3,127.1484913,"경기도 성남시 분당구 야탑로231번길 45, 602동  앞 도로상(야탑동, 목련마을미원6단지)",37.4083078,생활방범,,2018-04-01,200,031-729-2482
경기도 성남시청,경기도 성남시 분당구 야탑3동 455번지 영덕여고 입구,2014-06,,5,127.1386169,"경기도 성남시 분당구 판교로592번길 13, 영덕여고입구  (야탑동)",37.4053084,생활방범,,2018-04-01,200,031-729-2482
경기도 성남시청,경기도 성남시 분당구 야탑3동 152번지(서광어린이집),2014-11,,4,127.1494089,"경기도 성남시 분당구 판교로 685, 서광어린이집  (야탑동)",37.4056167,어린이보호,,2018-04-01,200,031-729-2482
경기도 성남시청,경기도 성남시 분당구 야탑3동 288-1번지,2015-11,,3,127.1246814,"경기도 성남시 분당구 장미로122번길 3-1, (야탑동)",37.3766914,생활방범,,2018-04-01,200,031-729-2482
경기도 성남시청,경기도 성남시 분당구 수내3동 88-5번지 앞(공영주차장 쪽),2013-10,,3,127.1273319,"경기도 성남시 분당구 불정로 260, 앞공영주차장쪽  (수내동)",37.3667682,생활방범,,2018-04-01,200,031-729-2482
경기도 성남시청,경기도 성남시 수정구 태평3동 3919-1번지 경희유치원 주변,2013-10,,5,127.1334444,"경기도 성남시 수정구 남문로 59, 경희유치원주변  (태평동)",37.4460188,어린이보호,,2018-04-01,200,031-729-2482
경기도 성남시청,경기도 성남시 수정구 태평3동 3632번지,2013-10,,3,127.1334434,"경기도 성남시 수정구 수정북로 34, (태평동)",37.4421581,생활방범,,2018-04-01,200,031-729-2482
경기도 성남시청,경기도 성남시 수정구 태평3동 4344-2번지,2013-10,,3,127.129891,"경기도 성남시 수정구 남문로31번길 18, (태평동, 부광맨션)",37.4464251,생활방범,,2018-04-01,200,031-729-2482
경기도 성남시청,경기도 성남시 수정구 태평3동 3743번지(태평초등학교),2014-11,,1,127.1313646,"경기도 성남시 수정구 남문로32번길 7, 태평초등학교  (태평동)",37.4446438,어린이보호,,2018-04-01,200,031-729-2482
경기도 성남시청,경기도 성남시 수정구 태평3동 5090-1번지(성남서초등학교),2014-11,,1,127.1295775,"경기도 성남시 수정구 태평로 19, 성남서초등학교  (태평동)",37.4486537,어린이보호,,2018-04-01,200,031-729-2482
경기도 성남시청,경기도 성남시 분당구 수내3동 101-5번지 발이봉길,2009-05,,1,127.1262145,"경기도 성남시 분당구 발이봉남로12번길 4, (수내동)",37.3648869,생활방범,,2018-04-01,41,031-729-2482
경기도 성남시청,경기도 성남시 수정구 태평3동 4389번지 맞은편 전봇대,2016-06,,5,127.129611,"경기도 성남시 수정구 제일로238번길 10, 맞은편전봇대  (태평동)",37.447591,생활방범,,2018-04-01,200,031-729-2482
경기도 성남시청,경기도 성남시 중원구 상대원2동 2996-54번지,2016-09,,2,127.158951,"경기도 성남시 중원구 희망로366번길 5-3, (상대원동)",37.438391,생활방범,,2018-04-01,200,031-729-2482
경기도 성남시청,경기도 성남시 중원구 상대원2동 4757-5번지,2017-11,,3,127.157531,"경기도 성남시 중원구 희망로327번길 6-6, (상대원동)",37.435331,생활방범,,2018-04-01,200,031-729-2482
경기도 성남시청,경기도 성남시 중원구 상대원3동 2327 뜸쑥어린이놀이터 부근,2010-04,,5,127.163036,"경기도 성남시 중원구 박석로97번길 16, 뜸쑥어린이놀이터부근  (상대원동)",37.4403912,생활방범,,2018-04-01,41,031-729-2482
경기도 성남시청,경기도 성남시 중원구 상대원3동 2637번지,2010-04,,3,127.162951,"경기도 성남시 중원구 박석로49번길 28, (상대원동)",37.437321,생활방범,,2018-04-01,41,031-729-2482
경기도 성남시청,경기도 성남시 중원구 상대원3동 853 부근,2010-04,,2,127.1649547,"경기도 성남시 중원구 박석로86번길 2, 부근  (상대원동)",37.4403631,생활방범,,2018-04-01,41,031-729-2482
경기도 성남시청,경기도 성남시 중원구 상대원3동 587 푸른솔어린이놀이터,2010-04,,3,127.1676175,,37.4425309,어린이보호,,2018-04-01,41,031-729-2482
경기도 성남시청,경기도 성남시 중원구 상대원3동 2976 부근,2010-04,,3,127.1609795,"경기도 성남시 중원구 금상로30번길 5-4, (상대원동, 성진빌라)",37.4382334,생활방범,,2018-04-01,41,031-729-2482
경기도 성남시청,경기도 성남시 중원구 상대원3동 856 주민센터주차장 부근,2010-04,,3,127.1654869,"경기도 성남시 중원구 박석로 78, 주민센터  주차장 부근(상대원동)",37.4396958,생활방범,,2018-04-01,41,031-729-2482
경기도 성남시청,경기도 성남시 중원구 상대원3동 2984-15번지 먹자곱창 옆,2010-09,,2,127.1589902,"경기도 성남시 중원구 희망로326번길 5-12, 먹자곱창옆  (상대원동)",37.4356583,생활방범,,2018-04-01,200,031-729-2482
경기도 성남시청,경기도 성남시 중원구 상대원3동 910번지,2013-10,,3,127.1667091,"경기도 성남시 중원구 박석로72번길 12-2, (상대원동)",37.4394253,생활방범,,2018-04-01,200,031-729-2482
경기도 성남시청,경기도 성남시 분당구 정자1동 6-2번지 정자초등학교 주변,2013-10,,2,127.1051116,"경기도 성남시 분당구 분당수서로 442, 정자초등학교  주변(정자동)",37.3741236,어린이보호,,2018-04-01,200,031-729-2482
경기도 성남시청,경기도 성남시 분당구 정자1동 97-4번지 백궁지하보도(성남대로변 인도),2015-10,,2,127.1081283,,37.3662515,생활방범,,2018-04-01,200,031-729-2482
경기도 성남시청,경기도 성남시 분당구 정자1동 26(정자역 4번 출구),2017-12,,4,127.107681,"경기도 성남시 분당구 성남대로 345, 정자역 4호 번출구(정자동)",37.366441,생활방범,,2018-04-01,200,031-729-2482
경기도 성남시청,경기도 성남시 중원구 상대원2동 3392번지,2016-09,,4,127.154831,"경기도 성남시 중원구 희망로367번길 32, (상대원동)",37.438611,생활방범,,2018-04-01,200,031-729-2482
경기도 성남시청,경기도 성남시 분당구 정자2동 103번지 능골공원내 물놀이장 부근,2009-05,,1,127.1167369,,37.3704978,어린이보호,,2018-04-01,41,031-729-2482
경기도 성남시청,경기도 성남시 분당구 정자2동 114번지 한솔어린이공원(분당49호),2009-05,,1,127.1169556,,37.3666574,어린이보호,,2018-04-01,41,031-729-2482
경기도 성남시청,경기도 성남시 분당구 정자2동 108번지 철쭉공원(분당48호),2009-05,,1,127.1221619,,37.366531,어린이보호,,2018-04-01,41,031-729-2482
경기도 성남시청,경기도 성남시 삼평동 740번지 푸르지오 월드마크입구,2011-06,,1,127.1164218,"경기도 성남시 분당구 동판교로177번길 25, (삼평동, 판교호반써밋플레이스)",37.4062829,교통단속,,2018-04-01,41,031-729-2482
경기도 성남시청,경기도 성남시 분당구 판교동 611-5번지 F7-1블럭 주택지역 내 커피전문점(피크닉장) 옆,2011-06,,1,127.0925365,,37.3910591,생활방범,,2018-04-01,200,031-729-2482
경기도 성남시청,경기도 성남시 분당구 판교동 633-1번지 판교중학교 앞 사거리,2011-06,,5,127.0870864,경기도 성남시 분당구 앞사거리,37.3877741,생활방범,,2018-04-01,200,031-729-2482
경기도 성남시청,경기도 성남시 분당구 판교동 641-8번지 E9-1블럭 주택지역(원마을 8단지 방향) 내,2011-06,,1,127.0977181,"경기도 성남시 분당구 판교원로 255, E9동  주택지역  방향 내(판교동, 판교원마을8단지상록아파트)",37.3869407,생활방범,,2018-04-01,41,031-729-2482
경기도 성남시청,경기도 성남시 수정구 신흥3동 3231,2012-07,,1,127.1454837,"경기도 성남시 수정구 공원로379번길 18-1, (신흥동)",37.4440306,쓰레기단속,,2018-04-01,41,031-729-2482
경기도 성남시청,경기도 성남시 수정구 태평1동 7123-7,2009-11,,1,127.1262817,"경기도 성남시 수정구 모란로145번길 2, (태평동)",37.4460852,쓰레기단속,,2018-04-01,41,031-729-2482
경기도 성남시청,경기도 성남시 수정구 태평2동 3345-1,2009-11,,1,127.1368607,"경기도 성남시 수정구 수정로153번길 18-5, (태평동)",37.4440509,쓰레기단속,,2018-04-01,41,031-729-2482
경기도 성남시청,경기도 성남시 수정구 태평4동 7296-17새마을금고 앞,2010-07,,1,127.1421943,"경기도 성남시 수정구 남문로 142, 새마을금고앞  (태평동)",37.4482598,쓰레기단속,,2018-04-01,41,031-729-2482
경기도 성남시청,경기도 성남시 수정구 단대동 50-1,2010-07,,1,127.1583919,"경기도 성남시 수정구 논골로53번길 1, (단대동)",37.4584538,쓰레기단속,,2018-04-01,41,031-729-2482
경기도 성남시청,경기도 성남시 수정구 산성동 410,2010-07,,1,127.1534487,"경기도 성남시 수정구 수정남로324번길 6, 다동  (산성동, 신성빌라)",37.456173,쓰레기단속,,2018-04-01,41,031-729-2482
경기도 성남시청,경기도 성남시 수정구 산성동 1794,2009-11,,1,127.1528695,,37.4538081,쓰레기단속,,2018-04-01,41,031-729-2482
경기도 성남시청,경기도 성남시 수정구 복정동 130-1,2012-07,,1,127.1351772,,37.4599225,쓰레기단속,,2018-04-01,41,031-729-2482
경기도 성남시청,경기도 성남시 분당구 삼평동 745번지 봇들마을 9단지 앞 저류지 내부(전망대 앞),2011-06,,1,127.1185321,"경기도 성남시 분당구 동판교로 156, 앞 저류지 내부 전망대 앞(삼평동, 봇들마을9단지금호어울림아파트)",37.398377,생활방범,,2018-04-01,41,031-729-2482
경기도 성남시청,경기도 성남시 분당구 삼평동 139-1번지(보평초등학교),2014-11,,1,127.1173731,,37.3959016,어린이보호,,2018-04-01,200,031-729-2482
경기도 성남시청,경기도 성남시 수정구 태평4동 2487번지 영광약국 부근,2010-04,,5,127.1393769,"경기도 성남시 수정구 시민로241번길 7, 영광약국부근  (태평동)",37.4489817,생활방범,,2018-04-01,41,031-729-2482
경기도 성남시청,경기도 성남시 수정구 태평4동 7290번지 금빛초등학교 후문,2010-04,,3,127.1409336,"경기도 성남시 수정구 남문로 112, 금빛초등학교  후문(태평동)",37.4479084,어린이보호,,2018-04-01,41,031-729-2482
경기도 성남시청,경기도 성남시 수정구 시흥동 211-38번지 동산슈퍼 위,2010-04,,2,127.0998258,"경기도 성남시 수정구 대왕판교로915번길 17, 동산슈퍼위  (시흥동)",37.421901,생활방범,,2018-04-01,41,031-729-2482
경기도 성남시청,경기도 성남시 수정구 시흥동 129-5번지(거창농원앞),2013-10,,3,127.1114036,,37.4276518,생활방범,,2018-04-01,200,031-729-2482
경기도 성남시청,경기도 성남시 수정구 시흥동 211-50번지 동산마을어린이놀이터,2014-03,,1,127.1006476,"경기도 성남시 수정구 대왕판교로915번길 13, 동산마을어린이놀이터아파트  (시흥동)",37.421774,어린이보호,,2018-04-01,200,031-729-2482
경기도 성남시청,경기도 성남시 수정구 사송동 600-2번지 방범초소 길 건너편,2010-09,,2,127.1175747,,37.4183559,생활방범,,2018-04-01,200,031-729-2482
경기도 성남시청,경기도 성남시 수정구 시흥동 83-2번지,2016-02,,4,127.104011,"경기도 성남시 수정구 설개로14번길 24, (시흥동, 상록로즈빌)",37.420561,생활방범,,2018-04-01,200,031-729-2482
경기도 성남시청,경기도 성남시 수정구 시흥동 156-12번지,2017-12,,5,127.104151,"경기도 성남시 수정구 대왕판교로972번길 15, (시흥동)",37.427321,생활방범,,2018-04-01,200,031-729-2482
경기도 성남시청,경기도 성남시 중원구 성남동 2355번지 GS편의점 앞,2009-05,,4,127.1391596,"경기도 성남시 중원구 광명로82번길 13, GS편의점앞  (성남동)",37.4340378,생활방범,,2018-04-01,41,031-729-2482
경기도 성남시청,경기도 성남시 중원구 성남동 2946번지 대원테니스장옆,2009-05,,1,127.1428842,,37.4334828,생활방범,,2018-04-01,41,031-729-2482
경기도 성남시청,경기도 성남시 중원구 성남동 3107번지,2009-05,,1,127.1409156,"경기도 성남시 중원구 원터로75번길 20, (성남동, 장군빌라)",37.4329007,생활방범,,2018-04-01,41,031-729-2482
경기도 성남시청,경기도 성남시 중원구 상대원1동 54번지 상대원초등학교 정문,2013-10,,3,127.1814017,"경기도 성남시 중원구 순환로214번길 16, 상대원초등학교  정문(상대원동)",37.4423689,어린이보호,,2018-04-01,200,031-729-2482
경기도 성남시청,경기도 성남시 중원구 상대원1동 1921지(분도유치원) 앞,2013-10,,3,127.1614383,"경기도 성남시 중원구 박석로25번길 39, 지분도유치원앞  (상대원동)",37.4349589,생활방범,,2018-04-01,200,031-729-2482
경기도 성남시청,경기도 성남시 분당구 정자2동 116-2번지 한솔마을 503동 앞 보행자길,2012-10,,3,127.1168111,"경기도 성남시 분당구 정자로 115, 503동  (정자동, 한솔마을주공5차아파트)",37.3648876,생활방범,,2018-04-01,200,031-729-2482
경기도 성남시청,경기도 성남시 분당구 정자2동 103번지 (능골공원 한솔마을 708동 진입로),2013-10,,3,127.1167369,경기도 성남시 분당구 진입로,37.3704978,생활방범,,2018-04-01,200,031-729-2482
경기도 성남시청,경기도 성남시 분당구 정자2동 106-3번지,2017-12,,4,127.119631,,37.366151,생활방범,,2018-04-01,200,031-729-2482
경기도 성남시청,경기도 성남시 분당구 정자2동 104-2번지,2015-11,,3,127.1246814,,37.3766914,생활방범,,2018-04-01,200,031-729-2482
경기도 성남시청,경기도 성남시 분당구 정자2동 108번지 수내지하보도(수내119 안전센터 맞은편),2015-10,,2,127.1225726,,37.3673922,생활방범,,2018-04-01,200,031-729-2482
경기도 성남시청,경기도 성남시 분당구 정자3동 234-11번지 부근,2010-04,,2,127.1251983,"경기도 성남시 분당구 불곡남로 43, 부근  (정자동)",37.3567849,생활방범,,2018-04-01,41,031-729-2482
경기도 성남시청,경기도 성남시 분당구 정자3동 235-1번지 부근,2010-04,,3,127.1252519,"경기도 성남시 분당구 불곡남로25번길 16, 부근  (정자동)",37.3580872,생활방범,,2018-04-01,41,031-729-2482
경기도 성남시청,경기도 성남시 분당구 정자3동 227-6번지 부근(기존 226-6번지로 표기),2010-04,,3,127.1228317,"경기도 성남시 분당구 불곡남로14번길 8, 부근기존 226동 6호 번지로 표기(정자동)",37.3582946,생활방범,,2018-04-01,41,031-729-2482
경기도 성남시청,경기도 성남시 분당구 정자3동 222-1,2008-06,,1,127.1195385,"경기도 성남시 분당구 불곡로7번길 8, (정자동)",37.3607965,생활방범,,2018-04-01,41,031-729-2482
경기도 성남시청,경기도 성남시 분당구 정자3동 246-1번지,2012-10,,4,127.1261345,"경기도 성남시 분당구 불곡북로25번길 8, (정자동)",37.359775,생활방범,,2018-04-01,200,031-729-2482
경기도 성남시청,경기도 성남시 분당구 정자3동 239번지 산자락어린이공원,2013-10,,3,127.1244921,,37.3589613,어린이보호,,2018-04-01,200,031-729-2482
경기도 성남시청,경기도 성남시 분당구 정자3동 203번지 불정초등학교 정문,2013-10,,2,127.1200024,"경기도 성남시 분당구 돌마로 250, 불정초등학교  정문(정자동)",37.3617078,어린이보호,,2018-04-01,200,031-729-2482
경기도 성남시청,경기도 성남시 수정구 수진1동 2431번지 머리나라미용실 부근,2010-04,,3,127.1357357,"경기도 성남시 수정구 제일로110번길 18, 머리나라미용실부근  (수진동)",37.4369525,생활방범,,2018-04-01,41,031-729-2482
경기도 성남시청,경기도 성남시 분당구 정자2동 105-6번지 한솔초등학교 정문,2009-05,,1,127.115211,"경기도 성남시 분당구 돌마로 303, 한솔초등학교  정문(정자동)",37.365951,어린이보호,,2018-04-01,41,031-729-2482
경기도 성남시청,경기도 성남시 수정구 수진1동 2707번지 부근,2010-04,,5,127.1352455,"경기도 성남시 수정구 산성대로149번길 5, 부근  (수진동)",37.435683,생활방범,,2018-04-01,41,031-729-2482
경기도 성남시청,경기도 성남시 수정구 수진1동 1921번지 미리내 어린이놀이터,2011-11,,3,127.1386754,"경기도 성남시 수정구 탄리로 21, 미리내어린이놀이터  (수진동)",37.4384896,어린이보호,,2018-04-01,130,031-729-2482
경기도 성남시청,경기도 성남시 분당구 삼평동 614 빛나래어린이공원,2014-11,,3,127.0986731,,37.4051963,어린이보호,,2018-04-01,200,031-729-2482
경기도 성남시청,경기도 성남시 분당구 삼평동 662번지 보행자도로 삼거리(변경전 : 백현동 663-1번지),2011-06,,1,127.1112156,"경기도 성남시 분당구 판교역로192번길 16, 변경전:백현동 663동 1호 삼거리 번지(삼평동)",37.397859,생활방범,,2018-04-01,200,031-729-2482
경기도 성남시청,경기도 성남시 분당구 삼평동 647번지 대로변 인도 / 651번지 맞은편(변경전 : 백현동 641-2번지),2011-06,,1,127.1111244,"경기도 성남시 분당구 대왕판교로606번길 31, 대로변인도 641동 651호 번지 맞은편 변경전 : 백현동 2번지(삼평동)",37.396295,생활방범,,2018-04-01,200,031-729-2482
경기도 성남시청,경기도 성남시 분당구 삼평동 742번지 801동앞 인도변(변경전 : 백현동 740-1번지),2011-06,,1,127.1141499,"경기도 성남시 분당구 동판교로 153, 801동 740-1호 번지(삼평동, 봇들마을8단지주공휴먼시아아파트)",37.3960521,생활방범,,2018-04-01,200,031-729-2482
경기도 성남시청,경기도 성남시 수정구 복정동 49-2번지 우남로 삼거리,2012-12,,3,127.1416868,"경기도 성남시 수정구 가마절로 2, 거리(복정동)",37.4622037,차량방범,,2018-04-01,130,031-729-2482
경기도 성남시청,"경기도 성남시 수정구 수진2동 4758-11번지 단대천교앞, 분당수서간진입(중앙로)",2010-01,,2,127.1247003,경기도 성남시 수정구 단대천교앞분당수서간진입중앙로,37.4329234,차량방범,,2018-04-01,140,031-729-2482
경기도 성남시청,경기도 성남시 중원구 갈현동 112번지 영생관리사업소 앞 아리랑고개,2012-12,,1,127.183264,"경기도 성남시 중원구 순암로 787, 영생관리사업소앞아리랑고개  (갈현동)",37.4186182,차량방범,,2018-04-01,130,031-729-2482
경기도 성남시청,경기도 성남시 중원구 상대원1동 420번지 이배재고개 성남소각장 옆,2012-12,,1,127.1818555,"경기도 성남시 중원구 둔촌대로 567, 이배재고개성남소각장옆  (상대원동)",37.432402,차량방범,,2018-04-01,130,031-729-2482
경기도 성남시청,경기도 성남시 중원구 은행2동 산61-11번지 은행중학교 부근(순환로),2011-05,,1,127.1721687,"경기도 성남시 중원구 순환로379번길 20, 은행중학교  (은행동)",37.4548405,차량방범,,2018-04-01,140,031-729-2482
경기도 성남시청,경기도 성남시 분당구 구미동 211번지 무지개마을 대림@ 앞(미금로),2011-05,,1,127.1162403,"경기도 성남시 분당구 미금로 23, (구미동, 무지개마을대림1단지)",37.3381763,차량방범,,2018-04-01,140,031-729-2482
경기도 성남시청,경기도 성남시 분당구 서현1동 89-6번지 서현어린이공원(분당31호) 서현초등학교 주변,2010-04,,2,127.1271136,"경기도 성남시 분당구 중앙공원로39번길 12, 서현초등학교 31호 서현어린이공원 분당 주변(서현동)",37.3820487,어린이보호,,2018-04-01,41,031-729-2482
경기도 성남시청,경기도 성남시 중원구 상대원1동 1517번지 앞(미용실 앞),2013-10,,3,127.1632222,"경기도 성남시 중원구 박석로41번길 25, 앞미용실앞  (상대원동)",37.4364824,생활방범,,2018-04-01,200,031-729-2482
경기도 성남시청,경기도 성남시 중원구 상대원1동 1255번지,2014-12,,1,127.1653418,"경기도 성남시 중원구 박석로57번길 5-1, (상대원동)",37.4378635,생활방범,,2018-04-01,200,031-729-2482
경기도 성남시청,경기도 성남시 중원구 상대원1동 1420-2번지,2017-11,,4,127.164801,"경기도 성남시 중원구 박석로5번길 12, (상대원동)",37.433321,생활방범,,2018-04-01,200,031-729-2482
경기도 성남시청,경기도 성남시 중원구 상대원2동 4236 대원초등학교 부근(4251로표기),2010-04,,2,127.1565862,"경기도 성남시 중원구 희망로343번길 24, 대원초등학교 4251호 부근 로표기(상대원동)",37.4372636,어린이보호,,2018-04-01,41,031-729-2482
경기도 성남시청,경기도 성남시 중원구 상대원2동 2991-2 부근,2010-04,,3,127.1618296,"경기도 성남시 중원구 금상로57번길 7, (상대원동, 빛나아트맨션)",37.4408364,생활방범,,2018-04-01,41,031-729-2482
경기도 성남시청,경기도 성남시 중원구 상대원2동 2999-17 부근,2010-04,,2,127.1587927,"경기도 성남시 중원구 금상로 9, 부근  (상대원동)",37.4372103,생활방범,,2018-04-01,41,031-729-2482
경기도 성남시청,경기도 성남시 분당구 수내3동 78번지 수내중 옆 보행자도로 초입,2016-09,,4,127.127211,"경기도 성남시 분당구 수내로192번길 12, 수내중  초입(수내동)",37.370401,생활방범,,2018-04-01,200,031-729-2482
경기도 성남시청,경기도 성남시 분당구 수내3동 164-3번지 샛별중학교,2017-12,,5,127.128891,"경기도 성남시 분당구 불정로 288, 샛별중학교  (수내동)",37.369161,생활방범,,2018-04-01,200,031-729-2482
경기도 성남시청,경기도 성남시 분당구 정자동 143-1번지 분당중학교부근,2009-05,,1,127.1114648,"경기도 성남시 분당구 황새울로 4, 분당중학교  부근(정자동)",37.3609216,생활방범,,2018-04-01,41,031-729-2482
경기도 성남시청,경기도 성남시 분당구 정자동 89번지 신기초등학교 주변,2013-10,,3,127.1105123,"경기도 성남시 분당구 황새울로 74, 신기초등학교  주변(정자동)",37.3667436,어린이보호,,2018-04-01,200,031-729-2482
경기도 성남시청,경기도 성남시 분당구 정자동 35-8번지 맞은편(학교쪽),2013-10,,3,127.1114751,"경기도 성남시 분당구 황새울로132번길 16-1, 맞은편학교  쪽(정자동)",37.3727556,생활방범,,2018-04-01,200,031-729-2482
경기도 성남시청,경기도 성남시 분당구 정자동 144번지 앞(은혜유치원),2014-11,,1,127.1119464,"경기도 성남시 분당구 내정로7번길 24, 앞은혜유치원  (정자동)",37.360902,어린이보호,,2018-04-01,200,031-729-2482
경기도 성남시청,경기도 성남시 수정구 수진1동 1899번지 앞,2013-10,,3,127.1375672,"경기도 성남시 수정구 탄리로23번길 11-1, (수진동)",37.4382633,생활방범,,2018-04-01,200,031-729-2482
경기도 성남시청,경기도 성남시 수정구 수진1동 1515번지 앞,2013-10,,3,127.1349981,"경기도 성남시 수정구 제일로124번길 18, (수진동)",37.4381432,생활방범,,2018-04-01,200,031-729-2482
경기도 성남시청,경기도 성남시 수정구 수진1동 1373번지,2014-12,,1,127.134566,"경기도 성남시 수정구 산성대로149번길 24-2, (수진동)",37.4373747,생활방범,,2018-04-01,200,031-729-2482
경기도 성남시청,경기도 성남시 수정구 수진1동 1921번지(성현어린이집),2014-11,,3,127.1386754,"경기도 성남시 수정구 탄리로 21, 성현어린이집  (수진동)",37.4384896,어린이보호,,2018-04-01,200,031-729-2482
경기도 성남시청,경기도 성남시 수정구 수진1동 2253번지,2015-09,,3,127.137661,"경기도 성남시 수정구 산성대로173번길 4, (수진동)",37.436521,생활방범,,2018-04-01,200,031-729-2482
경기도 성남시청,경기도 성남시 수정구 수진1동 792번지,2016-09,,2,127.136251,"경기도 성남시 수정구 수정로136번길 30, (수진동)",37.439521,생활방범,,2018-04-01,200,031-729-2482
경기도 성남시청,경기도 성남시 수정구 수진1동 2679-33번지,2017-10,,5,127.134371,"경기도 성남시 수정구 제일로98번길 2, (수진동)",37.435451,생활방범,,2018-04-01,200,031-729-2482
경기도 성남시청,경기도 성남시 수정구 수진1동 664번지,2017-10,,5,127.136791,"경기도 성남시 수정구 탄리로 39, (수진동)",37.440091,생활방범,,2018-04-01,200,031-729-2482
경기도 성남시청,경기도 성남시 수정구 수진1동 273번지,2017-11,,3,127.133741,"경기도 성남시 수정구 수정남로54번길 1, (수진동)",37.440381,생활방범,,2018-04-01,200,031-729-2482
경기도 성남시청,경기도 성남시 수정구 수진1동 2167번지,2017-11,,5,127.139541,"경기도 성남시 수정구 산성대로195번길 3, (수진동)",37.437521,생활방범,,2018-04-01,200,031-729-2482
경기도 성남시청,경기도 성남시 수정구 수진1동 2545번지,2017-11,,5,127.137501,"경기도 성남시 수정구 산성대로173번길 5-1, (수진동)",37.436761,생활방범,,2018-04-01,200,031-729-2482
경기도 성남시청,경기도 성남시 수정구 수진1동 2879번지,2017-11,,5,127.134821,"경기도 성남시 수정구 산성대로149번길 15, (수진동)",37.436481,생활방범,,2018-04-01,200,031-729-2482
경기도 성남시청,경기도 성남시 수정구 수진1동 664-2번지 성체유치원 주변,2013-10,,4,127.1374551,"경기도 성남시 수정구 탄리로 31, 성체유치원주변  (수진동)",37.439147,어린이보호,,2018-04-01,200,031-729-2482
경기도 성남시청,경기도 성남시 수정구 수진2동 3030번지 푸른꿈 어린이놀이터(동사무소 뒤),2010-04,,2,127.1288721,,37.4383696,어린이보호,,2018-04-01,41,031-729-2482
경기도 성남시청,경기도 성남시 중원구 상대원3동 2364 부근,2010-04,,2,127.1624493,"경기도 성남시 중원구 금상로50번길 8, 부근  (상대원동)",37.439379,생활방범,,2018-04-01,41,031-729-2482
경기도 성남시청,경기도 성남시 중원구 상대원3동 1814 부근 계단,2010-04,,3,127.1602466,"경기도 성남시 중원구 둔촌대로389번길 15, 부근계단  (상대원동)",37.4348964,생활방범,,2018-04-01,41,031-729-2482
경기도 성남시청,경기도 성남시 구미동 115번지 오리초등학교 주변,2014-03,,1,127.1153513,"경기도 성남시 분당구 미금로 121, 오리초등학교  주변(구미동)",37.3441478,교통단속,,2018-04-01,200,031-729-2482
경기도 성남시청,경기도 성남시 운중동 963번지 운중주민센터사거리,2011-06,,1,127.0774065,"경기도 성남시 분당구 운중로 129, 운중주민센터  (운중동)",37.3919266,교통단속,,2018-04-01,200,031-729-2482
경기도 성남시청,경기도 성남시 분당구 운중동 1012번지 눈꽃어린이공원 광장 진입로 입구,2011-06,,1,127.0836965,경기도 성남시 분당구 눈꽃어린이공원광장진입로,37.3913941,어린이보호,,2018-04-01,41,031-729-2482
경기도 성남시청,경기도 성남시 분당구 운중동 1034-4번지 F5-1블럭 주택지역 내 주유소 뒤,2011-06,,1,127.0850306,,37.3902444,생활방범,,2018-04-01,41,031-729-2482
경기도 성남시청,경기도 성남시 분당구 운중동 898-6번지 대방 노블랜드 앞 사거리 (운중로),2011-06,,1,127.0752031,"경기도 성남시 분당구 산운로 126, 앞 사거리(운중동, 산운마을대방노블랜드9단지)",37.3917731,생활방범,,2018-04-01,200,031-729-2482
경기도 성남시청,경기도 성남시 분당구 운중동 1001-5번지 E5-2블럭 주택지역 내,2011-06,,1,127.0811355,"경기도 성남시 분당구 산운로170번길 3-3, 주택 E5동  지역 내(운중동)",37.3929224,생활방범,,2018-04-01,200,031-729-2482
경기도 성남시청,경기도 성남시 분당구 운중동 999-10번지 E5-2블럭 주택지역 내 쓰레기 투입구 앞,2011-06,,1,127.0808003,,37.3922544,생활방범,,2018-04-01,41,031-729-2482
경기도 성남시청,경기도 성남시 분당구 운중동 991-1번지 배수지 입구,2011-06,,1,127.081067,,37.3941795,생활방범,,2018-04-01,41,031-729-2482
경기도 성남시청,경기도 성남시 분당구 정자동 183-2 야생화지하보도(미켈란 쉐르빌B동 성남대로 맞은편),2015-10,,2,127.1080261,"경기도 성남시 분당구 정자일로 100, B동 지하층  야생화보도  맞은편(정자동, 미켈란쉐르빌)",37.3576315,생활방범,,2018-04-01,200,031-729-2482
경기도 성남시청,경기도 성남시 분당구 정자1동 182번지 늘푸른어린이공원(분당56호),2009-05,,1,127.1064226,,37.3582617,어린이보호,,2018-04-01,41,031-729-2482
경기도 성남시청,경기도 성남시 수정구 태평4동 129번지 참사랑어린이집 부근,2010-04,,3,127.1386063,"경기도 성남시 수정구 시민로257번길 8, 참사랑어린이집부근  (태평동)",37.4505229,생활방범,,2018-04-01,41,031-729-2482
경기도 성남시청,경기도 성남시 중원구 상대원3동 2045번지,2012-10,,3,127.158671,"경기도 성남시 중원구 희망로326번길 6, (상대원동)",37.4350075,생활방범,,2018-04-01,200,031-729-2482
경기도 성남시청,경기도 성남시 분당구 정자1동 178-5 늘푸른초등학교 주변,2013-10,,3,127.1052104,"경기도 성남시 분당구 정자일로 87, 늘푸른초등학교  주변(정자동)",37.3580047,어린이보호,,2018-04-01,200,031-729-2482
경기도 성남시청,경기도 성남시 분당구 정자1동 26(정자역 3-4번 출구사이 미관광장),2017-12,,5,127.107531,"경기도 성남시 분당구 성남대로343번길 5, 출구사이미관광장 3동 4호 정자역 번(정자동)",37.366241,생활방범,,2018-04-01,200,031-729-2482
경기도 성남시청,경기도 성남시 분당구 정자2동 103번지 능골공원 내 화장실 주변,2009-05,,1,127.1167369,,37.3704978,어린이보호,,2018-04-01,41,031-729-2482
경기도 성남시청,경기도 성남시 분당구 정자3동 204번지 불정어린이공원(분당54호),2010-04,,3,127.1209052,,37.3616413,어린이보호,,2018-04-01,41,031-729-2482
경기도 성남시청,경기도 성남시 분당구 정자3동 196번지 정든어린이공원(분당53호) 탄천초등학교 주변,2010-04,,3,127.1165988,"경기도 성남시 분당구 내정로 20, 탄천초등학교 53호 정든어린이공원 분당 주변(정자동)",37.3615788,어린이보호,,2018-04-01,41,031-729-2482
경기도 성남시청,경기도 성남시 분당구 정자3동 225,2008-06,,1,127.1195385,"경기도 성남시 분당구 불곡남로 5, (정자동)",37.3607965,생활방범,,2018-04-01,41,031-729-2482
경기도 성남시청,경기도 성남시 분당구 정자3동 237-18번지,2013-03,,2,127.1257225,"경기도 성남시 분당구 불곡로25번길 11-1, (정자동)",37.3591323,생활방범,,2018-04-01,200,031-729-2482
경기도 성남시청,경기도 성남시 분당구 정자3동 195번지 탄천초등학교 주변,2013-10,,3,127.1156439,"경기도 성남시 분당구 내정로 20, 탄천초등학교  주변(정자동)",37.3616378,어린이보호,,2018-04-01,200,031-729-2482
경기도 성남시청,경기도 성남시 수정구 수진1동 2793번지 부근,2010-04,,3,127.1358825,"경기도 성남시 수정구 산성대로157번길 9, 부근  (수진동)",37.4362642,생활방범,,2018-04-01,41,031-729-2482
경기도 성남시청,경기도 성남시 수정구 수진1동 587번지 성남벤처빌딩 앞,2010-04,,5,127.1357254,"경기도 성남시 수정구 탄리로 57, 성남벤처빌딩  앞(수진동)",37.4411311,생활방범,,2018-04-01,41,031-729-2482
경기도 성남시청,경기도 성남시 수정구 수진1동 1137번지 산마루 어린이놀이터,2011-11,,2,127.1342459,,37.4391029,어린이보호,,2018-04-01,130,031-729-2482
경기도 성남시청,경기도 성남시 수정구 수진1동 1669번지,2015-04,,5,127.136421,"경기도 성남시 수정구 탄리로17번길 32, (수진동)",37.437191,생활방범,,2018-04-01,200,031-729-2482
경기도 성남시청,경기도 성남시 수정구 수진1동 1272번지,2017-10,,5,127.133191,"경기도 성남시 수정구 수정남로44번길 16, (수진동)",37.439021,생활방범,,2018-04-01,200,031-729-2482
경기도 성남시청,경기도 성남시 수정구 수진1동 1770번지,2017-10,,5,127.136641,"경기도 성남시 수정구 탄리로31번길 13, (수진동)",37.438641,생활방범,,2018-04-01,200,031-729-2482
경기도 성남시청,경기도 성남시 수정구 수진1동 1276-1번지,2017-11,,4,127.133491,"경기도 성남시 수정구 수정남로44번길 24, (수진동)",37.438371,생활방범,,2018-04-01,200,031-729-2482
경기도 성남시청,경기도 성남시 수정구 수진1동 943번지,2012-10,,4,127.1352335,"경기도 성남시 수정구 수정남로62번길 16, (수진동)",37.4396179,생활방범,,2018-04-01,200,031-729-2482
경기도 성남시청,경기도 성남시 수정구 수진1동 2204번지,2017-11,,5,127.140591,"경기도 성남시 수정구 산성대로 203, (수진동)",37.437731,생활방범,,2018-04-01,200,031-729-2482
경기도 성남시청,경기도 성남시 수정구 수진2동 4626번지 성수초등학교 주변 모란역 9번출구,2010-04,,3,127.128344,"경기도 성남시 수정구 모란로 11, 성수초등학교 9호 주변 모란역 번출구(수진동)",37.4342306,어린이보호,,2018-04-01,41,031-729-2482
경기도 성남시청,경기도 성남시 분당구 삼평동 667-7번지 판교소방서 대로 건너편 저류지 앞 사거리,2011-06,,1,127.1097329,경기도 성남시 분당구 대로,37.3998419,생활방범,,2018-04-01,200,031-729-2482
경기도 성남시청,경기도 성남시 중원구 중앙동 2209,2010-07,,1,127.1541351,"경기도 성남시 중원구 광명로242번길 11, (중앙동)",37.4411905,쓰레기단속,,2018-04-01,41,031-729-2482
경기도 성남시청,경기도 성남시 중원구 은행2동 930-1,2012-07,,1,127.1707775,"경기도 성남시 중원구 순환로379번길 27, (은행동)",37.4568717,쓰레기단속,,2018-04-01,41,031-729-2482
경기도 성남시청,경기도 성남시 수내1동 35번지 초림초등학교 후문,2012-05,,1,127.1178501,"경기도 성남시 분당구 수내로90번길 26, 초림초등학교  후문(수내동)",37.3766994,교통단속,,2018-04-01,41,031-729-2482
경기도 성남시청,경기도 성남시 수내2동 55 동신파크 하나은행앞,2006-08,,1,127.1187757,"경기도 성남시 분당구 내정로 152, 동하나은행앞(수내동, 파크타운롯데아파트)",37.3717994,교통단속,,2018-04-01,200,031-729-2482
경기도 성남시청,경기도 성남시 정자1동 127-3 대우푸르지오시티앞,2014-01,,1,127.1144606,"경기도 성남시 분당구 내정로17번길 2, 대우푸르지오시티앞  (정자동)",37.3624708,교통단속,,2018-04-01,200,031-729-2482
경기도 성남시청,경기도 성남시 정자1동 160 분당경찰서주변,2014-12,,1,127.105381,"경기도 성남시 분당구 정자일로 165, 분당경찰서  주변(정자동)",37.365284,교통단속,,2018-04-01,200,031-729-2482
경기도 성남시청,경기도 성남시 정자1동 178-5 늘푸른초등학교 주변,2014-03,,1,127.1052408,"경기도 성남시 분당구 정자일로 87, 늘푸른초등학교  주변(정자동)",37.3581459,교통단속,,2018-04-01,200,031-729-2482
경기도 성남시청,경기도 성남시 서현1동 259-3 성남교육지원청앞,2008-09,,1,127.1203411,"경기도 성남시 분당구 황새울로311번길 37, 성남교육지원청앞  (서현동)",37.3873123,교통단속,,2018-04-01,41,031-729-2482
경기도 성남시청,경기도 성남시 서현1동 92-1번지 분당초등학교 주변,2014-03,,1,127.1296823,"경기도 성남시 분당구 중앙공원로32번길 20, 분당초등학교  주변(서현동)",37.3786438,교통단속,,2018-04-01,200,031-729-2482
경기도 성남시청,경기도 성남시 서현2동 303번지 서당초등학교 주변,2014-03,,1,127.1347709,"경기도 성남시 분당구 돌마로476번길 30, 서당초등학교  주변(서현동)",37.3745552,교통단속,,2018-04-01,200,031-729-2482
경기도 성남시청,경기도 성남시 이매1동 118번지 안말초등학교 정문,2012-05,,1,127.1259073,"경기도 성남시 분당구 양현로 104, 안말초등학교  정문(이매동)",37.3931447,교통단속,,2018-04-01,41,031-729-2482
경기도 성남시청,경기도 성남시 분당구 운중동 921-3번지 경수고속도로 서판교 IC사거리 진입부,2011-06,,2,127.0775753,경기도 성남시 분당구 경수고속도로,37.3951687,차량방범,,2018-04-01,41,031-729-2482
경기도 성남시청,경기도 성남시 분당구 운중동 922-3번지 두밀사거리 태영데시앙 아파트 앞,2011-06,,4,127.0775753,"경기도 성남시 분당구 판교원로82번길 30, 앞(운중동, 산운마을태영13단지)",37.3951687,차량방범,,2018-04-01,41,031-729-2482
경기도 성남시청,경기도 성남시 분당구 운중동 916번지 두밀사거리 경남아너스빌 옆,2011-06,,2,127.074115,"경기도 성남시 분당구 판교원로82번길 60, 옆(운중동, 산운마을경남아너스빌14단지)",37.384421,차량방범,,2018-04-01,41,031-729-2482
경기도 성남시청,경기도 성남시 분당구 삼평동 637번지 판교IC 진입부,2011-06,,4,127.1037992,"경기도 성남시 분당구 대왕판교로645번길 21, 판교IC진입부  (삼평동)",37.399494,차량방범,,2018-04-01,41,031-729-2482
경기도 성남시청,경기도 성남시 중원구 성남동 2964 맞은편 전주,2010-07,,1,127.1420105,"경기도 성남시 중원구 원터로69번길 10-1, 맞은편전주  (성남동)",37.432881,쓰레기단속,,2018-04-01,41,031-729-2482
경기도 성남시청,경기도 성남시 중원구 중앙동 1906 맞은편 제2노인정 가로등,2009-04,,1,127.1577159,"경기도 성남시 중원구 광명로264번길 26-2, 2호 노인정 가로등(중앙동, 새한아트빌라)",37.4416279,쓰레기단속,,2018-04-01,41,031-729-2482
경기도 성남시청,경기도 성남시 중원구 은행1동 2192,2009-04,,1,127.1689274,"경기도 성남시 중원구 은행로 85, (은행동)",37.4520515,쓰레기단속,,2018-04-01,41,031-729-2482
경기도 성남시청,경기도 성남시 중원구 은행2동 1426-1,2012-07,,1,127.1661615,"경기도 성남시 중원구 산성대로518번길 23, (은행동, 동신빌라)",37.4561436,쓰레기단속,,2018-04-01,41,031-729-2482
경기도 성남시청,경기도 성남시 중원구 은행2동 1822-1,2012-07,,1,127.1637257,,37.4544171,쓰레기단속,,2018-04-01,41,031-729-2482
경기도 성남시청,경기도 성남시 중원구 금광2동 2782,2010-07,,1,127.1651494,"경기도 성남시 중원구 금빛로98번길 14-2, (금광동)",37.4464141,쓰레기단속,,2018-04-01,41,031-729-2482
경기도 성남시청,경기도 성남시 중원구 상대원1동 1692,2011-09,,1,127.162672,"경기도 성남시 중원구 둔촌대로413번길 13, (상대원동)",37.4342681,쓰레기단속,,2018-04-01,41,031-729-2482
경기도 성남시청,경기도 성남시 중원구 상대원2동 2996-30,2009-04,,1,127.1589144,"경기도 성남시 중원구 희망로360번길 7, (상대원동)",37.438043,쓰레기단속,,2018-04-01,41,031-729-2482
경기도 성남시청,경기도 성남시 중원구 상대원3동 836,2009-04,,1,127.1660823,"경기도 성남시 중원구 박석로86번길 14, (상대원동)",37.4407817,쓰레기단속,,2018-04-01,41,031-729-2482
경기도 성남시청,경기도 성남시 중원구 하대원동 145,2011-09,,1,127.1460082,"경기도 성남시 중원구 둔촌대로 250, (하대원동)",37.4282099,쓰레기단속,,2018-04-01,41,031-729-2482
경기도 성남시청,경기도 성남시 분당구 백현동 542-1번지 판교역 건너편(봇들마을 8단지) 나들이 공원 입구,2011-06,,1,127.1149208,,37.3947281,생활방범,,2018-04-01,200,031-729-2482
경기도 성남시청,경기도 성남시 분당구 운중동 914번지 경수고속도로 서판교 IC사거리 진출부,2011-06,,2,127.0775753,경기도 성남시 분당구 경수고속도로,37.3951687,차량방범,,2018-04-01,41,031-729-2482
경기도 성남시청,경기도 성남시 분당구 판교동 647번지 낙생고등학교 후문 (휴계공원 입구),2011-06,,1,127.1002632,경기도 성남시 분당구 대왕판교로 477,37.3868705,생활방범,,2018-04-01,41,031-729-2482
경기도 성남시청,경기도 성남시 분당구 판교동 639-4번지 E9-1블럭 주택지역 내 운중천변 (구름다리 입구),2011-06,,1,127.0995826,,37.3875905,생활방범,,2018-04-01,41,031-729-2482
경기도 성남시청,경기도 성남시 분당구 판교동 657-1번지 E9-1블럭 주택지역 내 판교 가압장 앞,2011-06,,1,127.098534,,37.3861036,생활방범,,2018-04-01,41,031-729-2482
경기도 성남시청,경기도 성남시 분당구 판교동 649-2번지 낙생고등학교 후문 도로 반대편 (판교 가압장),2011-06,,3,127.0997932,경기도 성남시 분당구 후문도로,37.386151,생활방범,,2018-04-01,41,031-729-2482
경기도 성남시청,경기도 성남시 분당구 판교동 500번지 판교공원 내 (원마을 13단지 방향),2011-06,,1,127.0949281,"경기도 성남시 분당구 서판교로180번길 18-2, 판교공원내원마을13단지  방향(판교동)",37.4022329,어린이보호,,2018-04-01,41,031-729-2482
경기도 성남시청,경기도 성남시 분당구 판교동 500번지 판교공원 내 (E13-1블럭 방향),2011-06,,1,127.0949281,"경기도 성남시 분당구 서판교로180번길 18-2, 판교공원내 E13동  방향(판교동)",37.4022329,어린이보호,,2018-04-01,41,031-729-2482
경기도 성남시청,경기도 성남시 분당구 판교동 486-12번지 E13-1블럭 내 보행자 출입로 사거리,2011-06,,1,127.0937562,경기도 성남시 분당구 내보행자출입로,37.4027724,생활방범,,2018-04-01,41,031-729-2482
경기도 성남시청,경기도 성남시 분당구 판교동 486-12번지 바람개비어린이공원 내부,2011-06,,1,127.0937562,,37.4027724,어린이보호,,2018-04-01,200,031-729-2482
경기도 성남시청,경기도 성남시 분당구 판교동 492-2번지 삼평고등학교(가칭) 앞 삼거리,2011-06,,1,127.0932185,경기도 성남시 분당구 가칭앞삼거리,37.4018562,생활방범,,2018-04-01,41,031-729-2482
경기도 성남시청,경기도 성남시 분당구 판교동 501-9번지 E13-1블럭 내부,2011-06,,1,127.0954114,,37.4021004,생활방범,,2018-04-01,200,031-729-2482
경기도 성남시청,경기도 성남시 분당구 판교동 506-15번지 E13-1블럭 내부 (자동크린넷 주변),2011-06,,1,127.0965255,,37.4019965,생활방범,,2018-04-01,41,031-729-2482
경기도 성남시청,경기도 성남시 분당구 판교동 649-3번지 E9-1블럭 사이 도로변,2011-06,,1,127.0994564,,37.3863006,생활방범,,2018-04-01,200,031-729-2482
경기도 성남시청,경기도 성남시 분당구 백현동 544-1번지 807동 건너편 나들이 공원내(변경전 : 백현동 542-1번지),2011-06,,3,127.1168697,,37.3951017,어린이보호,,2018-04-01,200,031-729-2482
경기도 성남시청,경기도 성남시 분당구 백현동 544번지 보평고 후문(변경전 : 백현동 743-2번지),2011-06,,5,127.1182644,"경기도 성남시 분당구 동판교로 124, 보평고후문변경전 743동 2호 : 백현동 번지(백현동)",37.394505,생활방범,,2018-04-01,200,031-729-2482
경기도 성남시청,경기도 성남시 분당구 백현동 544-3번지 석운고등학교 차량 진출입구 앞 삼거리,2011-06,,4,127.1177436,경기도 성남시 분당구 앞삼거리,37.3933343,생활방범,,2018-04-01,200,031-729-2482
경기도 성남시청,경기도 성남시 분당구 백현동 523번지 낙생대 공원 내부 팔각정 앞,2011-06,,1,127.1061234,"경기도 성남시 분당구 판교역로 75, 낙생대공원내부  팔각정 앞(백현동)",37.3868947,생활방범,,2018-04-01,41,031-729-2482
경기도 성남시청,경기도 성남시 분당구 백현동 524번지 납골공원 주차장 입구,2011-06,,1,127.1041777,,37.3861228,생활방범,,2018-04-01,41,031-729-2482
경기도 성남시청,경기도 성남시 분당구 백현동 523번지 생태공원 내부 (1),2011-06,,1,127.1061234,"경기도 성남시 분당구 판교역로 75, 생태공원내부 1호 (백현동)",37.3868947,생활방범,,2018-04-01,41,031-729-2482
경기도 성남시청,경기도 성남시 분당구 백현동 546-6번지 율곡초등학교 정문 앞,2011-06,,3,127.1151611,,37.3881108,생활방범,,2018-04-01,41,031-729-2482
경기도 성남시청,경기도 성남시 분당구 백현동 548번지 백현마을 4단지 앞 삼평어린이공원 내부,2011-06,,1,127.1159499,"경기도 성남시 분당구 동판교로 91, 앞 삼평어린이공원 내부(백현동, 백현마을4단지)",37.3889985,어린이보호,,2018-04-01,41,031-729-2482
경기도 성남시청,경기도 성남시 분당구 백현동 558-3번지 삼평고 / 하산초 사이 보행자 도로 내부,2011-06,,1,127.1097898,경기도 성남시 분당구 보행자도로,37.3866055,생활방범,,2018-04-01,200,031-729-2482
경기도 성남시청,경기도 성남시 분당구 백현동 558-6번지 신백현초등학교 입구 앞 (주택지역 방향),2011-06,,1,127.1113523,,37.3870974,어린이보호,,2018-04-01,200,031-729-2482
경기도 성남시청,경기도 성남시 분당구 백현동 542-1번지 보평중학교 주차장 앞 나들이 공원 내,2011-06,,3,127.1149208,,37.3947281,어린이보호,,2018-04-01,200,031-729-2482
경기도 성남시청,경기도 성남시 분당구 백현동 560-4번지(변경전 : 백현동 600-5번지),2011-06,,1,127.1122441,"경기도 성남시 분당구 판교역로2번길 32, 변경전:백현동 600동 5호 번지(백현동)",37.3864518,생활방범,,2018-04-01,41,031-729-2482
경기도 성남시청,경기도 성남시 분당구 동원동 59-20번지 쌍용자동차 맞은편,2011-04,,1,127.1009425,"경기도 성남시 분당구 동원로 4, 쌍용자동차맞은편  (동원동)",37.3451036,생활방범,,2018-04-01,41,031-729-2482
경기도 성남시청,경기도 성남시 분당구 판교동 500-9번지 E13-1블럭 내부 역사공원 앞 삼거리,2011-06,,1,127.095921,경기도 성남시 분당구 역사공원앞삼거리,37.4009932,생활방범,,2018-04-01,200,031-729-2482
경기도 성남시청,경기도 성남시 분당구 판교동 494-2번지 판교로 주변 (성내미 터널 앞 사거리),2011-06,,1,127.0942108,경기도 성남시 분당구 판교로,37.399658,생활방범,,2018-04-01,200,031-729-2482
경기도 성남시청,경기도 성남시 분당구 판교동 511-8번지 낙원중학교 후문방향 앞 보행자 진입로,2011-06,,1,127.0960295,경기도 성남시 분당구 후문방향앞보행자진입로,37.3995239,생활방범,,2018-04-01,41,031-729-2482
경기도 성남시청,경기도 성남시 분당구 판교동 509-12번지 E12-1블럭 내 보행자 도로 (경부고속도로 인근),2011-06,,1,127.0994722,경기도 성남시 분당구 내보행자도로,37.3971311,생활방범,,2018-04-01,200,031-729-2482
경기도 성남시청,경기도 성남시 분당구 백현동 581-5번지(변경전 : 백현동 622-12번지),2011-06,,1,127.1119812,"경기도 성남시 분당구 판교역로 6, 변경전:백현동 622동 12호 번지(백현동)",37.3837519,생활방범,,2018-04-01,200,031-729-2482
경기도 성남시청,경기도 성남시 분당구 백현동 584번지 보물섬어린이공원 내부,2011-06,,1,127.1130648,,37.3837978,어린이보호,,2018-04-01,41,031-729-2482
경기도 성남시청,경기도 성남시 분당구 백현동 604-3번지 맞은편,2015-09,,3,127.1149323,"경기도 성남시 분당구 동판교로52번길 3-8, 맞은편  (백현동)",37.3878264,생활방범,,2018-04-01,200,031-729-2482
경기도 성남시청,경기도 성남시 분당구 백현동 605-11번지 건물사이(변경전 : 백현동 634-4번지),2011-06,,1,127.1145724,"경기도 성남시 분당구 동판교로52번길 11, 건물사이변경전 634동 4호 : 백현동 번지(백현동)",37.3869358,생활방범,,2018-04-01,41,031-729-2482
경기도 성남시청,경기도 성남시 분당구 백현동 595-1번지 보행자도로 입구(변경전 : 백현동 634-4번지),2011-06,,1,127.1137831,"경기도 성남시 분당구 동판교로52번길 16-6, 입구변경전 634동 4호 : 백현동 번지(백현동)",37.3867143,생활방범,,2018-04-01,41,031-729-2482
경기도 성남시청,경기도 성남시 분당구 백현동 592-5번지 맞은편 물방울어린이공원 입구(변경전 : 백현동 646번지),2011-06,,4,127.115531,"경기도 성남시 분당구 동판교로52번길 17-9, 맞은편물방울어린이공원입구변경전 646호 : 백현동 번지(백현동)",37.386371,생활방범,,2018-04-01,200,031-729-2482
경기도 성남시청,경기도 성남시 분당구 백현동 625-5번지 F10-1블럭 내부 자동크린넷 앞,2011-06,,1,127.091844,,37.380158,생활방범,,2018-04-01,200,031-729-2482
경기도 성남시청,경기도 성남시 분당구 백현동 545-5번지 백현마을 4단지 앞 대로변(서현로) 사거리,2011-06,,1,127.1167074,"경기도 성남시 분당구 동판교로 91, 앞 대 사거리(백현동, 백현마을4단지)",37.3918871,생활방범,,2018-04-01,200,031-729-2482
경기도 성남시청,경기도 성남시 분당구 백현동 523번지 판교어린이도서관주변 생태공원 입구(변경전 : 백현동 566-3번지),2011-06,,4,127.1061234,"경기도 성남시 분당구 판교역로 75, 판교어린이도서관주변생태공원입구변경전 566동 3호 : 백현동 번지(백현동)",37.3868947,생활방범,,2018-04-01,200,031-729-2482
경기도 성남시청,경기도 성남시 분당구 백현동 566-3번지 신백현초등학교 정문 입구 (세계로 방면),2011-06,,1,127.110229,,37.386148,어린이보호,,2018-04-01,200,031-729-2482
경기도 성남시청,경기도 성남시 분당구 백현동 576번지 길건너 맞은편 백현야구장쪽 인도변(변경전 : 백현동 622-12번지),2011-06,,1,127.1097955,"경기도 성남시 분당구 판교역로 26, 622동 12호 번지(백현동)",37.384013,생활방범,,2018-04-01,200,031-729-2482
경기도 성남시청,경기도 성남시 분당구 백현동 521-2번지 가스공급시설 뒷편 어린이 공원 입구,2011-06,,1,127.1046585,,37.3922954,생활방범,,2018-04-01,41,031-729-2482
경기도 성남시청,경기도 성남시 분당구 백현동 521-2번지 낙생대 공원 주차장 앞 (팔각정 입구),2011-06,,1,127.1046585,,37.3922954,생활방범,,2018-04-01,41,031-729-2482
경기도 성남시청,경기도 성남시 분당구 백현동 521-4번지 낙생대 공원 출입구 (공연장 앞),2011-06,,1,127.1039774,,37.3913744,생활방범,,2018-04-01,41,031-729-2482
경기도 성남시청,경기도 성남시 태평4동 7339-4,2006-08,,1,127.1429994,"경기도 성남시 수정구 수정로 211, (태평동)",37.4445515,교통단속,,2018-04-01,200,031-729-2482
경기도 성남시청,경기도 성남시 태평4동 7290번지 금빛초등학교 후문,2013-06,,1,127.1409635,"경기도 성남시 수정구 남문로 112, 금빛초등학교  후문(태평동)",37.4478625,교통단속,,2018-04-01,200,031-729-2482
경기도 성남시청,경기도 성남시 수진1동 5,2006-08,,1,127.1354544,"경기도 성남시 수정구 수정로 138, (수진동)",37.4417303,교통단속,,2018-04-01,200,031-729-2482
경기도 성남시청,경기도 성남시 수진2동 3013,2009-11,,1,127.1283667,"경기도 성남시 수정구 성남대로 1218, (수진동)",37.438502,교통단속,,2018-04-01,41,031-729-2482
경기도 성남시청,경기도 성남시 수진2동 3399,2006-08,,1,127.132281,"경기도 성남시 수정구 제일로 145, (수진동)",37.439385,교통단속,,2018-04-01,200,031-729-2482
경기도 성남시청,경기도 성남시 수진2동 4612,2017-07,,1,127.1280048,"경기도 성남시 수정구 성남대로 1191, (수진동)",37.4360944,교통단속,,2018-04-01,200,031-729-2482
경기도 성남시청,경기도 성남시 수정구 수진2동 4760-5 둔전교회 앞,2017-07,,1,127.125751,,37.433121,교통단속,,2018-04-01,200,031-729-2482
경기도 성남시청,경기도 성남시 단대동 95-8,2006-08,,1,127.1592847,"경기도 성남시 수정구 산성대로 439, (단대동)",37.4512057,교통단속,,2018-04-01,200,031-729-2482
경기도 성남시청,경기도 성남시 산성동 1432,2006-08,,1,127.1502581,"경기도 성남시 수정구 수정남로291번길 9, (산성동)",37.4546571,교통단속,,2018-04-01,200,031-729-2482
경기도 성남시청,경기도 성남시 산성동 2137번지 성남북초등학교 후문,2013-06,,1,127.1513257,"경기도 성남시 수정구 희망로534번길 3, 성남북초등학교  후문(산성동)",37.4513984,교통단속,,2018-04-01,200,031-729-2482
경기도 성남시청,경기도 성남시 복정동 388-14번지 서울국제학교 주변,2014-03,,1,127.1290982,"경기도 성남시 수정구 성남대로1518번길 15, 서울국제학교  주변(복정동)",37.4657654,교통단속,,2018-04-01,200,031-729-2482
경기도 성남시청,경기도 성남시 시흥동 281-18 국지도23호도로공사앞,2011-06,,1,127.1077946,,37.422027,교통단속,,2018-04-01,200,031-729-2482
경기도 성남시청,경기도 성남시 시흥동 190-1 국지도23호고등동사무소건너편,2011-06,,1,127.1025229,"경기도 성남시 수정구 대왕판교로 948, 국지도 23호 고등동사무소건너편(시흥동)",37.4245826,교통단속,,2018-04-01,41,031-729-2482
경기도 성남시청,경기도 성남시 성남동 2610,2006-07,,1,127.1422533,"경기도 성남시 중원구 광명로 124, (성남동)",37.4365572,교통단속,,2018-04-01,200,031-729-2482
경기도 성남시청,경기도 성남시 성남동 2878,2008-01,,1,127.1434434,"경기도 성남시 중원구 원터로94번길 2, (성남동)",37.4351431,교통단속,,2018-04-01,41,031-729-2482
경기도 성남시청,경기도 성남시 중앙동 3363,2006-07,,1,127.1522598,,37.4402367,교통단속,,2018-04-01,200,031-729-2482
경기도 성남시청,경기도 성남시 분당구 백현동 604-8번지 하산중학교 건너편 가로공원 내부,2011-06,,1,127.1147288,"경기도 성남시 분당구 동판교로52번길 9-1, 하산중학교  건너편 가로공원 내부(백현동)",37.3873465,생활방범,,2018-04-01,41,031-729-2482
경기도 성남시청,경기도 성남시 분당구 백현동 604-7번지 하산중학교 건너편 가로공원 내부,2011-06,,1,127.1148753,"경기도 성남시 분당구 동판교로52번길 9-3, 하산중학교  건너편 가로공원 내부(백현동)",37.3873461,생활방범,,2018-04-01,41,031-729-2482
경기도 성남시청,경기도 성남시 분당구 백현동 567번지 901동 길건너 맞은편(변경전 : 백현동 607-1번지),2011-06,,4,127.1091208,,37.385928,생활방범,,2018-04-01,200,031-729-2482
경기도 성남시청,경기도 성남시 분당구 백현동 568-2번지 내부길(변경전 : 백현동 608-9번지),2011-06,,1,127.1086326,"경기도 성남시 분당구 판교역로 48, 변경전:백현동 608동 9호 번지(백현동)",37.3850987,생활방범,,2018-04-01,41,031-729-2482
경기도 성남시청,경기도 성남시 분당구 백현동 575-9번지(변경전 : 608-11번지로 되어있었음),2011-06,,1,127.1089542,,37.3844047,생활방범,,2018-04-01,41,031-729-2482
경기도 성남시청,경기도 성남시 분당구 삼평동 717-1번지 사송사거리 이지더원 아파트 앞,2011-06,,2,127.1164218,"경기도 성남시 분당구 판교로 393, 앞(삼평동, 봇들마을2단지이지더원아파트)",37.4062829,차량방범,,2018-04-01,41,031-729-2482
경기도 성남시청,경기도 성남시 분당구 삼평동 718-2번지 사송사거리(이매동 벌말사거리 방향),2011-06,,4,127.1164218,경기도 성남시 분당구 사송사거리,37.4062829,차량방범,,2018-04-01,41,031-729-2482
경기도 성남시청,경기도 성남시 분당구 백현동 545-3번지 세계로사거리 경남아너스빌 옆,2011-06,,4,127.091844,경기도 성남시 분당구 세계로사거리,37.3801584,차량방범,,2018-04-01,41,031-729-2482
경기도 성남시청,경기도 성남시 수정구 단대동 75번지 단대초등학교 후문,2010-04,,1,127.1590602,"경기도 성남시 수정구 단대로 30, 단대초등학교  후문(단대동)",37.4529819,차량방범,,2018-04-01,140,031-729-2482
경기도 성남시청,경기도 성남시 수정구 고등동 511-6번지 왕남초등학교 부근,2010-04,,1,127.0988803,,37.4265679,차량방범,,2018-04-01,140,031-729-2482
경기도 성남시청,경기도 성남시 중원구 금광2동 3087번지 홍능정육점 부근,2010-04,,1,127.1657176,"경기도 성남시 중원구 금빛로61번길 12, 홍능정육점부근  (금광동)",37.4471649,차량방범,,2018-04-01,140,031-729-2482
경기도 성남시청,경기도 성남시 중원구 상대원1동 359-3 경기마트 앞 공영주차장부근,2010-04,,1,127.1791916,,37.4345263,차량방범,,2018-04-01,140,031-729-2482
경기도 성남시청,경기도 성남시 분당구 서현1동 323-5번지 율동공원 입구,2010-04,,1,127.1475416,,37.3795051,차량방범,,2018-04-01,140,031-729-2482
경기도 성남시청,경기도 성남시 분당구 서현2동 343-5번지 부근,2010-04,,1,127.139211,,37.3769473,차량방범,,2018-04-01,140,031-729-2482
경기도 성남시청,경기도 성남시 신흥1동 5180,2006-08,,1,127.1425564,"경기도 성남시 수정구 시민로 165, (신흥동, 샤르망)",37.4426714,교통단속,,2018-04-01,200,031-729-2482
경기도 성남시청,경기도 성남시 신흥1동 6912,2006-08,,1,127.1418559,"경기도 성남시 수정구 산성대로 217, (신흥동)",37.4386025,교통단속,,2018-04-01,200,031-729-2482
경기도 성남시청,경기도 성남시 신흥2동 2463-4 (롯데시네마 앞),2009-11,,1,127.1528171,"경기도 성남시 수정구 산성대로 331, 롯데시네마앞  (신흥동)",37.4436918,교통단속,,2018-04-01,41,031-729-2482
경기도 성남시청,경기도 성남시 신흥3동 2482,2006-08,,1,127.1496871,"경기도 성남시 수정구 산성대로 297, (신흥동)",37.4422895,교통단속,,2018-04-01,200,031-729-2482
경기도 성남시청,경기도 성남시 신흥3동 2495,2006-08,,1,127.1484809,"경기도 성남시 수정구 산성대로 285, (신흥동)",37.4416293,교통단속,,2018-04-01,200,031-729-2482
경기도 성남시청,경기도 성남시 신흥3동 3778,2006-08,,1,127.1440494,"경기도 성남시 수정구 시민로 144-1, (신흥동)",37.441072,교통단속,,2018-04-01,200,031-729-2482
경기도 성남시청,경기도 성남시 신흥3동 4223-2,2009-11,,1,127.1445606,"경기도 성남시 수정구 산성대로 247, (신흥동)",37.4400431,교통단속,,2018-04-01,41,031-729-2482
경기도 성남시청,경기도 성남시 태평1동 6111,2006-08,,1,127.1273539,"경기도 성남시 수정구 성남대로 1278, (태평동)",37.443781,교통단속,,2018-04-01,200,031-729-2482
경기도 성남시청,경기도 성남시 태평1동 6973,2006-08,,1,127.1273185,"경기도 성남시 수정구 성남대로 1235, (태평동)",37.4400143,교통단속,,2018-04-01,200,031-729-2482
